CompanyName,CompanyNumber,RegAddress.CareOf,RegAddress.POBox,RegAddress.AddressLine1,RegAddress.AddressLine2,RegAddress.PostTown,RegAddress.County,RegAddress.Country,RegAddress.PostCode,CompanyCategory,CompanyStatus,CountryOfOrigin,DissolutionDate,IncorporationDate,Accounts.AccountRefDay,Accounts.AccountRefMonth,Accounts.NextDueDate,Accounts.LastMadeUpDate,Accounts.AccountCategory,Returns.NextDueDate,Returns.LastMadeUpDate,Mortgages.NumMortCharges,Mortgages.NumMortOutstanding,Mortgages.NumMortPartSatisfied,Mortgages.NumMortSatisfied,SICCode.SicText_1,SICCode.SicText_2,SICCode.SicText_3,SICCode.SicText_4,LimitedPartnerships.NumGenPartners,LimitedPartnerships.NumLimPartners,URI,PreviousName_1.CONDATE,PreviousName_1.CompanyName,PreviousName_2.CONDATE,PreviousName_2.CompanyName,PreviousName_3.CONDATE,PreviousName_3.CompanyName,PreviousName_4.CONDATE,PreviousName_4.CompanyName,PreviousName_5.CONDATE,PreviousName_5.CompanyName,PreviousName_6.CONDATE,PreviousName_6.CompanyName,PreviousName_7.CONDATE,PreviousName_7.CompanyName,PreviousName_8.CONDATE,PreviousName_8.CompanyName,PreviousName_9.CONDATE,PreviousName_9.CompanyName,PreviousName_10.CONDATE,PreviousName_10.CompanyName,ConfStmtNextDueDate,ConfStmtLastMadeUpDate,Latitude,Longitude
&DLU LTD,15841264,,,"FLAT 5, 15",SECOND AVENUE,LONDON,,UNITED KINGDOM,NW4 2RR,Private Limited Company,Active,United Kingdom,,16/07/2024,31.0,7.0,16/04/2026,,NO ACCOUNTS FILED,13/08/2025,,0,0,0,0,47190 - Other retail sale in non-specialised stores,,,,0,0,https://find-and-update.company-information.service.gov.uk/company/15841264,,,,,,,,,,,,,,,,,,,,,29/07/2025,,51.58903908327326,-0.21713523667224996
01DIRECT LTD,08294893,,,WILBERFORCE HOUSE,STATION ROAD,LONDON,,,NW4 4QE,Private Limited Company,Active,United Kingdom,,15/11/2012,31.0,12.0,30/09/2025,31/12/2023,TOTAL EXEMPTION FULL,13/12/2016,15/11/2015,1,1,0,0,61900 - Other telecommunications activities,,,,0,0,https://find-and-update.company-information.service.gov.uk/company/08294893,,,,,,,,,,,,,,,,,,,,,03/10/2025,19/09/2024,51.57976719202784,-0.23911864673576186
04531855,04531855,,,C/O LAUDAU BAKER LTD MOUNTCLIFF HOUSE,154 BRENT STREET,LONDON,,,NW4 2DR,"PRI/LBG/NSC (Private, Limited by guarantee, no share capital, use of 'Limited' exemption)",Active - Proposal to Strike off,United Kingdom,,11/09/2002,30.0,9.0,30/06/2025,30/09/2023,TOTAL EXEMPTION FULL,09/10/2016,11/09/2015,0,0,0,0,86900 - Other human health activities,,,,0,0,https://find-and-update.company-information.service.gov.uk/company/04531855,19/01/2023,BOTTOMS UP,,,,,,,,,,,,,,,,,,,25/09/2024,11/09/2023,51.58751934517646,-0.22068809708243045
1 CASTLE HILL LIMITED,15663331,,,14 LODGE ROAD,,LONDON,,ENGLAND,NW4 4EF,Private Limited Company,Active,United Kingdom,,20/04/2024,30.0,4.0,20/01/2026,,NO ACCOUNTS FILED,18/05/2025,,0,0,0,0,68209 - Other letting and operating of own or leased real estate,,,,0,0,https://find-and-update.company-information.service.gov.uk/company/15663331,,,,,,,,,,,,,,,,,,,,,18/06/2025,04/06/2024,51.58950649214163,-0.22245826843937652
1 KNOLL ROAD MANAGEMENT COMPANY LIMITED,02674933,,,113 BRENT STREET,,LONDON,,UNITED KINGDOM,NW4 2DX,"PRI/LTD BY GUAR/NSC (Private, limited by guarantee, no share capital)",Active,United Kingdom,,31/12/1991,31.0,12.0,30/09/2025,31/12/2023,DORMANT,18/07/2017,20/06/2016,0,0,0,0,74990 - Non-trading company,98000 - Residents property management,,,0,0,https://find-and-update.company-information.service.gov.uk/company/02674933,,,,,,,,,,,,,,,,,,,,,04/07/2025,20/06/2024,51.587383863342616,-0.22124193360195973
1 RAVENHURST AVENUE RTM COMPANY LIMITED,12913552,,,1A  (GROUND FLOOR FLAT),RAVENSHURST AVENUE,LONDON,,UNITED KINGDOM,NW4 4EE,"PRI/LTD BY GUAR/NSC (Private, limited by guarantee, no share capital)",Active,United Kingdom,,29/09/2020,30.0,9.0,30/06/2025,30/09/2023,DORMANT,27/10/2021,,0,0,0,0,98000 - Residents property management,,,,0,0,https://find-and-update.company-information.service.gov.uk/company/12913552,,,,,,,,,,,,,,,,,,,,,12/10/2025,28/09/2024,51.589008578477284,-0.22461421095059647
1 SUNNY GARDENS ROAD LIMITED,03475712,,,1 SUNNY GARDENS ROAD,LONDON,,,,NW4 1SL,Private Limited Company,Active,United Kingdom,,03/12/1997,31.0,12.0,30/09/2025,31/12/2023,DORMANT,31/12/2016,03/12/2015,0,0,0,0,98000 - Residents property management,,,,0,0,https://find-and-update.company-information.service.gov.uk/company/03475712,,,,,,,,,,,,,,,,,,,,,17/12/2024,03/12/2023,51.591919494830485,-0.22444297329050608
1-48 THE GREENWAY LIMITED,14530512,,,5 SENTINEL SQUARE,,LONDON,,ENGLAND,NW4 2EL,Private Limited Company,Active,United Kingdom,,08/12/2022,31.0,12.0,30/09/2025,31/12/2023,DORMANT,05/01/2024,,0,0,0,0,68209 - Other letting and operating of own or leased real estate,,,,0,0,https://find-and-update.company-information.service.gov.uk/company/14530512,,,,,,,,,,,,,,,,,,,,,21/12/2024,07/12/2023,51.58694135158491,-0.21993117665454867
10-TEN MEDIA LTD,14605737,,,26 WEST AVENUE,,LONDON,,ENGLAND,NW4 2LJ,Private Limited Company,Active - Proposal to Strike off,United Kingdom,,20/01/2023,31.0,1.0,20/10/2024,,NO ACCOUNTS FILED,17/02/2024,,0,0,0,0,59112 - Video production activities,"59120 - Motion picture, video and television programme post-production activities",74100 - specialised design activities,,0,0,https://find-and-update.company-information.service.gov.uk/company/14605737,,,,,,,,,,,,,,,,,,,,,17/05/2025,03/05/2024,51.58444717767571,-0.21616022695857642
100 TOLLINGTON WAY FREEHOLD COMPANY LIMITED,05516882,,,SUITE 1 CHURCHILL HOUSE,137 - 139 BRENT STREET,LONDON,,ENGLAND,NW4 4DJ,Private Limited Company,Active,United Kingdom,,25/07/2005,31.0,7.0,30/04/2025,31/07/2023,MICRO ENTITY,22/08/2016,25/07/2015,0,0,0,0,98000 - Residents property management,,,,0,0,https://find-and-update.company-information.service.gov.uk/company/05516882,,,,,,,,,,,,,,,,,,,,,03/01/2025,20/12/2023,51.58862360764252,-0.22175650594586224
101 STATION ROAD (FREEHOLD) MANAGEMENT LTD,11615194,,,FLAT 2 101 STATION ROAD,STATION ROAD,LONDON,,ENGLAND,NW4 4NT,Private Limited Company,Active,United Kingdom,,10/10/2018,31.0,10.0,31/07/2025,31/10/2023,DORMANT,07/11/2019,,0,0,0,0,68100 - Buying and selling of own real estate,,,,0,0,https://find-and-update.company-information.service.gov.uk/company/11615194,,,,,,,,,,,,,,,,,,,,,23/10/2025,09/10/2024,51.58284375066164,-0.23440974215563873
105 SUTHERLAND AVENUE MANAGEMENT COMPANY LIMITED,07436590,,,SUITE 1 CHURCHILL HOUSE,137 - 139 BRENT STREET,LONDON,,ENGLAND,NW4 4DJ,"PRI/LTD BY GUAR/NSC (Private, limited by guarantee, no share capital)",Active,United Kingdom,,11/11/2010,30.0,11.0,31/08/2025,30/11/2023,DORMANT,09/12/2016,11/11/2015,0,0,0,0,98000 - Residents property management,,,,0,0,https://find-and-update.company-information.service.gov.uk/company/07436590,,,,,,,,,,,,,,,,,,,,,25/11/2025,11/11/2024,51.58862360764252,-0.22175650594586224
108 HOLDERS HILL ROAD LTD,09990956,,,108 HOLDERS HILL ROAD,,LONDON,,UNITED KINGDOM,NW4 1LJ,"PRI/LTD BY GUAR/NSC (Private, limited by guarantee, no share capital)",Active,United Kingdom,,05/02/2016,29.0,2.0,30/11/2024,28/02/2023,DORMANT,05/03/2017,,0,0,0,0,74990 - Non-trading company,,,,0,0,https://find-and-update.company-information.service.gov.uk/company/09990956,,,,,,,,,,,,,,,,,,,,,25/01/2025,11/01/2024,51.60043933127437,-0.2093246308859077
11-12 GRENVILLE STREET LIMITED,13544965,,,"BUCKINGHAM HOUSE, 2ND FLOOR",45 VIVIAN AVE,LONDON,,UNITED KINGDOM,NW4 3UX,Private Limited Company,Active,United Kingdom,,03/08/2021,31.0,5.0,28/02/2025,31/05/2023,TOTAL EXEMPTION FULL,31/08/2022,,2,2,0,0,68209 - Other letting and operating of own or leased real estate,,,,0,0,https://find-and-update.company-information.service.gov.uk/company/13544965,,,,,,,,,,,,,,,,,,,,,19/10/2025,05/10/2024,51.582397258047074,-0.22924533103874092
112 HHR FREEHOLD LTD,15462225,,,112 HOLDERS HILL ROAD,,LONDON,,,NW4 1LJ,"PRI/LTD BY GUAR/NSC (Private, limited by guarantee, no share capital)",Active,United Kingdom,,02/02/2024,29.0,2.0,02/11/2025,,NO ACCOUNTS FILED,02/03/2025,,0,0,0,0,98000 - Residents property management,,,,0,0,https://find-and-update.company-information.service.gov.uk/company/15462225,,,,,,,,,,,,,,,,,,,,,15/02/2025,,51.60043933127437,-0.2093246308859077
115/121 FINCHLEY ROAD MANAGEMENT COMPANY LIMITED,01567368,,,CHURCHILL HOUSE,137-139 BRENT STREET,LONDON,,ENGLAND,NW4 4DJ,Private Limited Company,Active,United Kingdom,,11/06/1981,31.0,3.0,31/12/2024,31/03/2023,DORMANT,28/01/2017,31/12/2015,0,0,0,0,98000 - Residents property management,,,,0,0,https://find-and-update.company-information.service.gov.uk/company/01567368,,,,,,,,,,,,,,,,,,,,,15/12/2024,01/12/2023,51.58862360764252,-0.22175650594586224
116 SUNNINGFIELDS ROAD MANAGEMENT LIMITED,05010200,,,116 SUNNINGFIELDS ROAD,HENDON,LONDON,,,NW4 4RE,Private Limited Company,Active,United Kingdom,,08/01/2004,31.0,1.0,31/10/2025,31/01/2024,DORMANT,05/02/2017,08/01/2016,0,0,0,0,68209 - Other letting and operating of own or leased real estate,,,,0,0,https://find-and-update.company-information.service.gov.uk/company/05010200,,,,,,,,,,,,,,,,,,,,,22/01/2025,08/01/2024,51.595400998135,-0.22692046499875188
12 DEACON ROAD (FREEHOLD) LIMITED,10767356,,,75 MONTAGU ROAD,,LONDON,,ENGLAND,NW4 3ER,"PRI/LTD BY GUAR/NSC (Private, limited by guarantee, no share capital)",Active,United Kingdom,,12/05/2017,31.0,5.0,28/02/2025,31/05/2023,DORMANT,09/06/2018,,0,0,0,0,98000 - Residents property management,,,,0,0,https://find-and-update.company-information.service.gov.uk/company/10767356,,,,,,,,,,,,,,,,,,,,,07/06/2025,24/05/2024,51.5802533376549,-0.23556375491448325
12 GREENCROFT GARDENS LIMITED,03539102,,,HIGHVIEW HOUSE,6 QUEENS ROAD,LONDON,,,NW4 2TH,"PRI/LTD BY GUAR/NSC (Private, limited by guarantee, no share capital)",Active,United Kingdom,,01/04/1998,30.0,4.0,31/01/2025,30/04/2023,DORMANT,29/04/2017,01/04/2016,2,2,0,0,98000 - Residents property management,,,,0,0,https://find-and-update.company-information.service.gov.uk/company/03539102,,,,,,,,,,,,,,,,,,,,,15/04/2025,01/04/2024,51.583398357118966,-0.22349051791303137
12 WELL WALK (MANAGEMENT) LIMITED,03412330,,,22 SYDNEY GROVE,HENDON,LONDON,,,NW4 2EH,Private Limited Company,Active,United Kingdom,,31/07/1997,31.0,7.0,30/04/2026,31/07/2024,MICRO ENTITY,28/08/2016,31/07/2015,0,0,0,0,68100 - Buying and selling of own real estate,74990 - Non-trading company,,,0,0,https://find-and-update.company-information.service.gov.uk/company/03412330,,,,,,,,,,,,,,,,,,,,,14/08/2025,31/07/2024,51.58424884727004,-0.22324083143387402
126 BARRY ROAD LTD,09322583,,,MORELAND ESTATE MANAGEMENT,5 SENTINEL SQUARE,LONDON,,ENGLAND,NW4 2EL,"PRI/LTD BY GUAR/NSC (Private, limited by guarantee, no share capital)",Active,United Kingdom,,21/11/2014,30.0,11.0,31/08/2025,30/11/2023,DORMANT,19/12/2016,21/11/2015,0,0,0,0,98000 - Residents property management,,,,0,0,https://find-and-update.company-information.service.gov.uk/company/09322583,,,,,,,,,,,,,,,,,,,,,05/12/2024,21/11/2023,51.58694135158491,-0.21993117665454867
13 GASCONY AVENUE FREEHOLD LTD,09805389,,,54 FOSCOTE ROAD,,LONDON,,ENGLAND,NW4 3SD,Private Limited Company,Active,United Kingdom,,02/10/2015,31.0,10.0,31/07/2025,31/10/2023,TOTAL EXEMPTION FULL,30/10/2016,,0,0,0,0,68209 - Other letting and operating of own or leased real estate,,,,0,0,https://find-and-update.company-information.service.gov.uk/company/09805389,,,,,,,,,,,,,,,,,,,,,15/10/2025,01/10/2024,51.580393883939415,-0.23056445328859754
136 HPA LTD,15294496,,,C/O POLLOCK ACCOUNTING LTD,3-4 SENTINEL SQUARE,LONDON,,UNITED KINGDOM,NW4 2EL,Private Limited Company,Active,United Kingdom,,20/11/2023,31.0,12.0,20/08/2025,,NO ACCOUNTS FILED,18/12/2024,,0,0,0,0,98000 - Residents property management,,,,0,0,https://find-and-update.company-information.service.gov.uk/company/15294496,,,,,,,,,,,,,,,,,,,,,02/12/2025,18/11/2024,51.58694135158491,-0.21993117665454867
15 CASTELLAIN ROAD LIMITED,04889360,,,8 TALBOT CRESCENT,LONDON,,,,NW4 4PE,Private Limited Company,Active,United Kingdom,,05/09/2003,31.0,12.0,30/09/2025,31/12/2023,MICRO ENTITY,03/10/2016,05/09/2015,0,0,0,0,98000 - Residents property management,,,,0,0,https://find-and-update.company-information.service.gov.uk/company/04889360,,,,,,,,,,,,,,,,,,,,,13/09/2025,30/08/2024,51.58216143545273,-0.2368754791470697
15440224 LIMITED,15445413,,,9 APREY GARDENS,,LONDON,,UNITED KINGDOM,NW4 2RH,Private Limited Company,Active,United Kingdom,,26/01/2024,31.0,1.0,26/10/2025,,NO ACCOUNTS FILED,23/02/2025,,0,0,0,0,86900 - Other human health activities,,,,0,0,https://find-and-update.company-information.service.gov.uk/company/15445413,,,,,,,,,,,,,,,,,,,,,08/02/2025,,51.588684170343384,-0.21981974850304986
17 GREAT NORTH WAY LIMITED,12411096,,,17 GREAT NORTH WAY,,LONDON,,UNITED KINGDOM,NW4 1PT,"PRI/LTD BY GUAR/NSC (Private, limited by guarantee, no share capital)",Active,United Kingdom,,17/01/2020,31.0,1.0,31/10/2025,31/01/2024,DORMANT,14/02/2021,,0,0,0,0,98000 - Residents property management,,,,0,0,https://find-and-update.company-information.service.gov.uk/company/12411096,,,,,,,,,,,,,,,,,,,,,14/03/2025,29/02/2024,51.601368093392324,-0.23322926660763296
17 HOLMBROOK DRIVE MANAGEMENT LIMITED,04392699,,,17 HOLMBROOK DRIVE,HENDON,LONDON,,,NW4 2LU,Private Limited Company,Active,United Kingdom,,12/03/2002,31.0,3.0,31/12/2024,31/03/2023,DORMANT,09/04/2017,12/03/2016,0,0,0,0,98000 - Residents property management,,,,0,0,https://find-and-update.company-information.service.gov.uk/company/04392699,,,,,,,,,,,,,,,,,,,,,15/12/2024,01/12/2023,51.585139079150686,-0.2119903831671861
17 PARK ROAD TUNBRIDGE WELLS LIMITED,04585350,,,14 DENEHURST GARDENS,,LONDON,,,NW4 3QT,Private Limited Company,Active,United Kingdom,,08/11/2002,31.0,12.0,30/09/2025,31/12/2023,MICRO ENTITY,06/12/2016,08/11/2015,1,1,0,0,68320 - Management of real estate on a fee or contract basis,,,,0,0,https://find-and-update.company-information.service.gov.uk/company/04585350,,,,,,,,,,,,,,,,,,,,,28/05/2025,14/05/2024,51.579295507567615,-0.22274125047492851
17-20 MALCOLM COURT FREEHOLD LTD,09699443,,,318 WATFORD WAY,,LONDON,,ENGLAND,NW4 4UY,"PRI/LTD BY GUAR/NSC (Private, limited by guarantee, no share capital)",Active,United Kingdom,,23/07/2015,31.0,7.0,30/04/2025,31/07/2023,MICRO ENTITY,20/08/2016,,0,0,0,0,98000 - Residents property management,,,,0,0,https://find-and-update.company-information.service.gov.uk/company/09699443,,,,,,,,,,,,,,,,,,,,,05/08/2025,22/07/2024,51.59642943334518,-0.2331032807051862
175 HIGH ROAD LTD,14177653,,,"36 SHIREHALL PARK,",,"HENDON,",LONDON,ENGLAND,NW4 2QX,Private Limited Company,Active,United Kingdom,,16/06/2022,30.0,6.0,31/03/2025,30/06/2023,TOTAL EXEMPTION FULL,14/07/2023,,1,1,0,0,68100 - Buying and selling of own real estate,,,,0,0,https://find-and-update.company-information.service.gov.uk/company/14177653,,,,,,,,,,,,,,,,,,,,,12/07/2025,28/06/2024,51.579094664245915,-0.21720691862625383
175 HIGH STREET LTD,13925353,,,36 SHIREHALL PARK,,HENDON,LONDON,ENGLAND,NW4 2QX,Private Limited Company,Active,United Kingdom,,18/02/2022,27.0,2.0,27/11/2025,29/02/2024,TOTAL EXEMPTION FULL,18/03/2023,,2,2,0,0,68100 - Buying and selling of own real estate,,,,0,0,https://find-and-update.company-information.service.gov.uk/company/13925353,,,,,,,,,,,,,,,,,,,,,28/03/2025,14/03/2024,51.579094664245915,-0.21720691862625383
18 CAVENDISH SQUARE LIMITED,10250849,,,BELFRY HOUSE CHAMPIONS WAY,HENDON,LONDON,,UNITED KINGDOM,NW4 1PX,Private Limited Company,Active,United Kingdom,,24/06/2016,28.0,2.0,30/11/2025,29/02/2024,TOTAL EXEMPTION FULL,22/07/2017,,1,1,0,0,68209 - Other letting and operating of own or leased real estate,,,,0,0,https://find-and-update.company-information.service.gov.uk/company/10250849,,,,,,,,,,,,,,,,,,,,,07/07/2025,23/06/2024,51.604969661016675,-0.22459820543533215
1983 HOLDINGS LTD,12708474,,,50 ST.MARY'S CRESCENT,,LONDON,BARNET,ENGLAND,NW4 4LH,Private Limited Company,Active,United Kingdom,,30/06/2020,30.0,6.0,31/03/2025,30/06/2023,MICRO ENTITY,28/07/2021,,0,0,0,0,80100 - Private security activities,,,,0,0,https://find-and-update.company-information.service.gov.uk/company/12708474,,,,,,,,,,,,,,,,,,,,,13/07/2025,29/06/2024,51.59297825871089,-0.22905044009453596
19TECHLAB LTD,15899842,,,8 ENDERSLEIGH GARDENS,,LONDON,,UNITED KINGDOM,NW4 4RZ,Private Limited Company,Active,United Kingdom,,15/08/2024,31.0,8.0,15/05/2026,,NO ACCOUNTS FILED,12/09/2025,,0,0,0,0,62020 - Information technology consultancy activities,62090 - Other information technology service activities,,,0,0,https://find-and-update.company-information.service.gov.uk/company/15899842,,,,,,,,,,,,,,,,,,,,,28/08/2025,,51.587385721512085,-0.2356627663638576
1D COWTHORPE LIMITED,11676302,,,FLAT 18 CURVE COURT,VICTORIA ROAD,LONDON,,ENGLAND,NW4 2AF,Private Limited Company,Active,United Kingdom,,14/11/2018,30.0,11.0,31/08/2025,30/11/2023,TOTAL EXEMPTION FULL,12/12/2019,,0,0,0,0,68209 - Other letting and operating of own or leased real estate,,,,0,0,https://find-and-update.company-information.service.gov.uk/company/11676302,,,,,,,,,,,,,,,,,,,,,27/11/2025,13/11/2024,51.58802855811158,-0.2198742467024683
1DG SERVICES LTD,11988256,,,42 WATFORD WAY,,LONDON,,ENGLAND,NW4 3AL,Private Limited Company,Active,United Kingdom,,10/05/2019,31.0,5.0,28/02/2025,31/05/2023,MICRO ENTITY,07/06/2020,,0,0,0,0,33140 - Repair of electrical equipment,,,,0,0,https://find-and-update.company-information.service.gov.uk/company/11988256,,,,,,,,,,,,,,,,,,,,,23/05/2025,09/05/2024,51.58406896669668,-0.22799673089579506
1ST CLASS PROTECTION LIMITED,05030024,,,BUCKINGHAM HOUSE,"FIRST FLOOR, 45 VIVIAN AVENUE",LONDON,,UNITED KINGDOM,NW4 3XA,Private Limited Company,Active,United Kingdom,,29/01/2004,31.0,12.0,30/09/2025,31/12/2023,TOTAL EXEMPTION FULL,27/02/2017,30/01/2016,1,1,0,0,96090 - Other service activities n.e.c.,,,,0,0,https://find-and-update.company-information.service.gov.uk/company/05030024,,,,,,,,,,,,,,,,,,,,,13/02/2025,30/01/2024,51.582277,-0.229946
2 CREIGHTON AVENUE LTD,10909719,,,FLAT 3 HARRY COURT,"13 WENLOCK GARDENS, HENDON",LONDON,,ENGLAND,NW4 4XJ,Private Limited Company,Active,United Kingdom,,10/08/2017,31.0,7.0,30/04/2026,31/07/2024,MICRO ENTITY,07/09/2018,,0,0,0,0,74990 - Non-trading company,,,,0,0,https://find-and-update.company-information.service.gov.uk/company/10909719,,,,,,,,,,,,,,,,,,,,,23/08/2025,09/08/2024,51.58849626252927,-0.23356987627206932
2 LEFT FEET LIMITED,02758894,,,46 VIVIAN AVENUE,HENDON CENTRAL,LONDON,,,NW4 3XP,Private Limited Company,Liquidation,United Kingdom,,26/10/1992,31.0,10.0,31/07/2021,31/10/2019,MICRO ENTITY,21/11/2016,24/10/2015,1,1,0,0,90030 - Artistic creation,,,,0,0,https://find-and-update.company-information.service.gov.uk/company/02758894,,,,,,,,,,,,,,,,,,,,,18/10/2021,04/10/2020,51.582747970234,-0.22924613132514018
2 PENSHURST GARDENS EDGWARE LIMITED,06446712,,,74 BRENT STREET,,LONDON,,ENGLAND,NW4 2ES,Private Limited Company,Active,United Kingdom,,06/12/2007,31.0,12.0,30/09/2025,31/12/2023,TOTAL EXEMPTION FULL,03/01/2017,06/12/2015,0,0,0,0,68320 - Management of real estate on a fee or contract basis,,,,0,0,https://find-and-update.company-information.service.gov.uk/company/06446712,,,,,,,,,,,,,,,,,,,,,04/01/2025,21/12/2023,51.58502144664248,-0.219039092582961
20 WESTSIDE LTD,11775259,,,20 WESTSIDE,,LONDON,,ENGLAND,NW4 4XB,Private Limited Company,Active - Proposal to Strike off,United Kingdom,,18/01/2019,31.0,1.0,31/10/2021,31/01/2020,MICRO ENTITY,15/02/2020,,0,0,0,0,68209 - Other letting and operating of own or leased real estate,68310 - Real estate agencies,,,0,0,https://find-and-update.company-information.service.gov.uk/company/11775259,,,,,,,,,,,,,,,,,,,,,24/10/2022,10/10/2021,51.599421835083156,-0.23177425148043285
204 WATFORD WAY LIMITED,08221140,,,204 WATFORD WAY,HENDON,LONDON,,,NW4 4UA,Private Limited Company,Active,United Kingdom,,19/09/2012,30.0,9.0,30/06/2025,30/09/2023,MICRO ENTITY,17/10/2016,19/09/2015,0,0,0,0,82990 - Other business support service activities n.e.c.,,,,0,0,https://find-and-update.company-information.service.gov.uk/company/08221140,,,,,,,,,,,,,,,,,,,,,03/10/2025,19/09/2024,51.59124795113305,-0.2341705290190706
20IM SOHO LIMITED,15980691,,,1 BEAUFORT GARDENS,,LONDON,,UNITED KINGDOM,NW4 3QN,Private Limited Company,Active,United Kingdom,,26/09/2024,30.0,9.0,26/06/2026,,NO ACCOUNTS FILED,24/10/2025,,0,0,0,0,47750 - Retail sale of cosmetic and toilet articles in specialised stores,,,,0,0,https://find-and-update.company-information.service.gov.uk/company/15980691,,,,,,,,,,,,,,,,,,,,,09/10/2025,,51.579919254960984,-0.22414578154800688
21 DOLLIS AVENUE LIMITED,12656586,,,WILBERFORCE HOUSE,25 STATION ROAD,LONDON,,ENGLAND,NW4 4QE,"PRI/LTD BY GUAR/NSC (Private, limited by guarantee, no share capital)",Active,United Kingdom,,09/06/2020,30.0,6.0,31/03/2025,30/06/2023,DORMANT,07/07/2021,,0,0,0,0,98000 - Residents property management,,,,0,0,https://find-and-update.company-information.service.gov.uk/company/12656586,,,,,,,,,,,,,,,,,,,,,23/06/2025,09/06/2024,51.57976719202784,-0.23911864673576186
21 PROPERTIES LIMITED,14545453,,,8 GREEN WALK,GREEN WALK,LONDON,,ENGLAND,NW4 2AJ,Private Limited Company,Active,United Kingdom,,16/12/2022,31.0,12.0,30/09/2025,31/12/2023,TOTAL EXEMPTION FULL,13/01/2024,,2,2,0,0,68209 - Other letting and operating of own or leased real estate,,,,0,0,https://find-and-update.company-information.service.gov.uk/company/14545453,,,,,,,,,,,,,,,,,,,,,29/12/2024,15/12/2023,51.58607418430326,-0.21257437615496305
21BETSHOP LIMITED,15793384,,,93 STATION ROAD,,LONDON,,ENGLAND,NW4 4PA,Private Limited Company,Active,United Kingdom,,21/06/2024,30.0,6.0,21/03/2026,,NO ACCOUNTS FILED,19/07/2025,,0,0,0,0,58290 - Other software publishing,,,,0,0,https://find-and-update.company-information.service.gov.uk/company/15793384,,,,,,,,,,,,,,,,,,,,,04/07/2025,,51.582143970236785,-0.23511524798993721
22 SUNNY GARDENS ROAD MANAGEMENT LIMITED,03758629,,,22 SUNNY GARDENS ROAD,LONDON,,,,NW4 1RX,Private Limited Company,Active,United Kingdom,,23/04/1999,30.0,4.0,31/01/2025,30/04/2023,DORMANT,21/05/2017,23/04/2016,0,0,0,0,98000 - Residents property management,,,,0,0,https://find-and-update.company-information.service.gov.uk/company/03758629,,,,,,,,,,,,,,,,,,,,,07/05/2025,23/04/2024,51.5924721047285,-0.2241182491375769
224 HENDON WAY LTD,14937597,,,224 HENDON WAY,,LONDON,,UNITED KINGDOM,NW4 3NE,Private Limited Company,Active,United Kingdom,,15/06/2023,30.0,6.0,15/03/2025,,NO ACCOUNTS FILED,13/07/2024,,0,0,0,0,68209 - Other letting and operating of own or leased real estate,,,,0,0,https://find-and-update.company-information.service.gov.uk/company/14937597,,,,,,,,,,,,,,,,,,,,,28/06/2025,14/06/2024,51.58071526597927,-0.225644673188491
23 PEMBRIDGE CRESCENT LIMITED,02661501,,,SUITE 1 CHURCHILL HOUSE,137-139 BRENT STREET,LONDON,,ENGLAND,NW4 4DJ,Private Limited Company,Active,United Kingdom,,08/11/1991,30.0,9.0,30/06/2025,30/09/2023,DORMANT,06/12/2016,08/11/2015,0,0,0,0,98000 - Residents property management,,,,0,0,https://find-and-update.company-information.service.gov.uk/company/02661501,,,,,,,,,,,,,,,,,,,,,21/11/2025,07/11/2024,51.58862360764252,-0.22175650594586224
24 CAR CONCIERGE LTD,11390044,,,28 PROTHERO GARDENS,,LONDON,,ENGLAND,NW4 3SL,Private Limited Company,Active,United Kingdom,,31/05/2018,31.0,5.0,28/02/2025,31/05/2023,MICRO ENTITY,28/06/2019,,0,0,0,0,49390 - Other passenger land transport,,,,0,0,https://find-and-update.company-information.service.gov.uk/company/11390044,,,,,,,,,,,,,,,,,,,,,13/06/2025,30/05/2024,51.5855755201437,-0.2277215968204978
24 SECOND AVENUE LIMITED,09587817,,,24B SECOND AVENUE,,LONDON,,ENGLAND,NW4 2RN,"PRI/LTD BY GUAR/NSC (Private, limited by guarantee, no share capital)",Active,United Kingdom,,13/05/2015,31.0,5.0,28/02/2025,31/05/2023,DORMANT,10/06/2017,13/05/2016,0,0,0,0,68209 - Other letting and operating of own or leased real estate,,,,0,0,https://find-and-update.company-information.service.gov.uk/company/09587817,,,,,,,,,,,,,,,,,,,,,27/05/2025,13/05/2024,51.58896608914444,-0.21765778532933638
245 INVESTMENTS LTD,10471757,,,2A SOUTHBOURNE CRESCENT,,LONDON,,ENGLAND,NW4 2JY,Private Limited Company,Active,United Kingdom,,09/11/2016,28.0,11.0,28/08/2025,29/11/2023,TOTAL EXEMPTION FULL,07/12/2017,,2,2,0,0,68209 - Other letting and operating of own or leased real estate,,,,0,0,https://find-and-update.company-information.service.gov.uk/company/10471757,,,,,,,,,,,,,,,,,,,,,11/08/2025,28/07/2024,51.58829795846865,-0.20921020327010492
247 LONDON LOCKSMITH LIMITED,09383952,,,"1ST FLOOR, ENTERPRISE HOUSE",2 THE CREST,LONDON,,ENGLAND,NW4 2HN,Private Limited Company,Active,United Kingdom,,12/01/2015,31.0,10.0,31/07/2025,31/10/2023,TOTAL EXEMPTION FULL,09/02/2017,12/01/2016,0,0,0,0,95290 - Repair of personal and household goods n.e.c.,,,,0,0,https://find-and-update.company-information.service.gov.uk/company/09383952,,,,,,,,,,,,,,,,,,,,,26/01/2025,12/01/2024,51.58538289624877,-0.21915487170432882
247LOCKSMITH LTD,11161583,,,369 WATFORD WAY,,LONDON,,UNITED KINGDOM,NW4 4TE,Private Limited Company,Active - Proposal to Strike off,United Kingdom,,22/01/2018,31.0,1.0,31/01/2021,31/01/2019,MICRO ENTITY,19/02/2019,,0,0,0,0,96090 - Other service activities n.e.c.,,,,0,0,https://find-and-update.company-information.service.gov.uk/company/11161583,,,,,,,,,,,,,,,,,,,,,03/03/2021,20/01/2020,51.5972070131115,-0.23398272556411995
25 MOUNT ROAD MANAGEMENT LTD,02255283,,,"FIRST FLOOR OFFICE SENTINEL HOUSE, SENTINEL SQUARE",BRENT STREET,LONDON,,,NW4 2EP,Private Limited Company,Active,United Kingdom,,10/05/1988,31.0,3.0,31/12/2025,31/03/2024,DORMANT,07/06/2017,10/05/2016,0,0,0,0,99999 - Dormant Company,,,,0,0,https://find-and-update.company-information.service.gov.uk/company/02255283,,,,,,,,,,,,,,,,,,,,,23/04/2025,09/04/2024,51.58719583163548,-0.22010888916566645
25 SCHOOL LANE LIMITED,07285198,,,C/O LESLIE WOOLFSON & CO. CHURCHILL HOUSE,137-139 BRENT STREET,LONDON,,ENGLAND,NW4 4DJ,Private Limited Company,Active - Proposal to Strike off,United Kingdom,,15/06/2010,30.0,9.0,30/06/2023,30/09/2021,MICRO ENTITY,13/07/2017,15/06/2016,0,0,0,0,69201 - Accounting and auditing activities,,,,0,0,https://find-and-update.company-information.service.gov.uk/company/07285198,21/09/2010,JM PLAY AND LEARN LIMITED,,,,,,,,,,,,,,,,,,,29/06/2023,15/06/2022,51.58862360764252,-0.22175650594586224
25-28 EDGEWORTH CLOSE MANAGEMENT COMPANY LTD,08727346,,,1 SHIREHALL LANE,,LONDON,,,NW4 2PE,Private Limited Company,Active,United Kingdom,,10/10/2013,31.0,3.0,31/12/2024,31/03/2023,TOTAL EXEMPTION FULL,07/11/2016,10/10/2015,0,0,0,0,68209 - Other letting and operating of own or leased real estate,,,,0,0,https://find-and-update.company-information.service.gov.uk/company/08727346,,,,,,,,,,,,,,,,,,,,,24/10/2025,10/10/2024,51.58128705074792,-0.21650048017151444
26 SUTHERLAND PLACE MANAGEMENT LIMITED,02133963,,,SUITE 1 CHURCHILL HOUSE,137 - 139 BRENT STREET,LONDON,,ENGLAND,NW4 4DJ,Private Limited Company,Active,United Kingdom,,21/05/1987,31.0,3.0,31/12/2025,31/03/2024,DORMANT,26/05/2017,28/04/2016,0,0,0,0,68209 - Other letting and operating of own or leased real estate,,,,0,0,https://find-and-update.company-information.service.gov.uk/company/02133963,,,,,,,,,,,,,,,,,,,,,12/05/2025,28/04/2024,51.58862360764252,-0.22175650594586224
263 ENFIELD LIMITED,11140778,,,36 SHIREHALL PARK,,LONDON,,UNITED KINGDOM,NW4 2QX,Private Limited Company,Active,United Kingdom,,09/01/2018,31.0,1.0,31/10/2025,31/01/2024,TOTAL EXEMPTION FULL,06/02/2019,,2,2,0,0,68209 - Other letting and operating of own or leased real estate,,,,0,0,https://find-and-update.company-information.service.gov.uk/company/11140778,,,,,,,,,,,,,,,,,,,,,22/01/2025,08/01/2024,51.579094664245915,-0.21720691862625383
263 HIGH STREET LTD,09680903,,,36 SHIREHALL PARK,,LONDON,,,NW4 2QX,Private Limited Company,Active,United Kingdom,,10/07/2015,9.0,1.0,09/10/2025,09/01/2024,TOTAL EXEMPTION FULL,07/08/2017,11/07/2015,4,0,0,4,68100 - Buying and selling of own real estate,,,,0,0,https://find-and-update.company-information.service.gov.uk/company/09680903,,,,,,,,,,,,,,,,,,,,,14/07/2025,30/06/2024,51.579094664245915,-0.21720691862625383
2710 LONDON LTD,15030143,,,UNIT 222,42 WATFORD WAY,LONDON,,UNITED KINGDOM,NW4 3AL,Private Limited Company,Active,United Kingdom,,26/07/2023,31.0,7.0,26/04/2025,,NO ACCOUNTS FILED,23/08/2024,,0,0,0,0,96090 - Other service activities n.e.c.,,,,0,0,https://find-and-update.company-information.service.gov.uk/company/15030143,,,,,,,,,,,,,,,,,,,,,08/08/2025,25/07/2024,51.58406896669668,-0.22799673089579506
28 INTERIOR DESIGN LTD,10705459,,,46 VIVIAN AVENUE,HENDON CENTRAL,LONDON,,,NW4 3XP,Private Limited Company,Liquidation,United Kingdom,,03/04/2017,30.0,4.0,31/01/2023,30/04/2021,TOTAL EXEMPTION FULL,01/05/2018,,0,0,0,0,74100 - specialised design activities,,,,0,0,https://find-and-update.company-information.service.gov.uk/company/10705459,,,,,,,,,,,,,,,,,,,,,07/08/2023,24/07/2022,51.582747970234,-0.22924613132514018
29 BROAD ST LTD,13979825,,,65A WATFORD WAY,,LONDON,,ENGLAND,NW4 3AQ,Private Limited Company,Active,United Kingdom,,16/03/2022,30.0,3.0,30/12/2024,31/03/2023,TOTAL EXEMPTION FULL,13/04/2023,,3,3,0,0,68209 - Other letting and operating of own or leased real estate,,,,0,0,https://find-and-update.company-information.service.gov.uk/company/13979825,,,,,,,,,,,,,,,,,,,,,29/03/2025,15/03/2024,51.58452799226046,-0.22981204609330097
29 GAINSBOROUGH LTD,13801037,,,65A WATFORD WAY,,LONDON,,ENGLAND,NW4 3AQ,Private Limited Company,Active,United Kingdom,,14/12/2021,30.0,12.0,31/12/2024,31/12/2022,TOTAL EXEMPTION FULL,11/01/2023,,3,3,0,0,68209 - Other letting and operating of own or leased real estate,,,,0,0,https://find-and-update.company-information.service.gov.uk/company/13801037,,,,,,,,,,,,,,,,,,,,,27/12/2024,13/12/2023,51.58452799226046,-0.22981204609330097
29 MAPESBURY ROAD MANAGEMENT LIMITED,03306072,FIRST FLOOR,,SENTINEL HOUSE SENTINEL SQUARE,BRENT STREET,LONDON,,,NW4 2EP,Private Limited Company,Active,United Kingdom,,22/01/1997,31.0,3.0,31/12/2024,31/03/2023,UNAUDITED ABRIDGED,19/02/2017,22/01/2016,0,0,0,0,98000 - Residents property management,,,,0,0,https://find-and-update.company-information.service.gov.uk/company/03306072,,,,,,,,,,,,,,,,,,,,,05/02/2025,22/01/2024,51.58719583163548,-0.22010888916566645
2SN LTD,11370922,,,CHURCHILL HOUSE SUITE 64,137-139 BRENT STREET,LONDON,,ENGLAND,NW4 4DJ,Private Limited Company,Active,United Kingdom,,18/05/2018,31.0,5.0,28/02/2026,31/05/2024,TOTAL EXEMPTION FULL,15/06/2019,,1,1,0,0,41100 - Development of building projects,68310 - Real estate agencies,68320 - Management of real estate on a fee or contract basis,,0,0,https://find-and-update.company-information.service.gov.uk/company/11370922,,,,,,,,,,,,,,,,,,,,,27/05/2025,13/05/2024,51.58862360764252,-0.22175650594586224
3 ELSENHAM STREET RESIDENTS ASSOCIATION LTD,09811370,MR B SKINNER,,29 EDGEWORTH CRESCENT,,LONDON,,ENGLAND,NW4 4HA,Private Limited Company,Active,United Kingdom,,06/10/2015,31.0,10.0,31/07/2025,31/10/2023,DORMANT,03/11/2016,,0,0,0,0,98000 - Residents property management,,,,0,0,https://find-and-update.company-information.service.gov.uk/company/09811370,,,,,,,,,,,,,,,,,,,,,07/10/2025,23/09/2024,51.586164750752545,-0.2345985740465263
3 SUNNINGFIELDS CRESCENT RTM COMPANY LTD,10637307,,,3A SUNNINGFIELDS CRESCENT,,LONDON,,ENGLAND,NW4 4RD,"PRI/LTD BY GUAR/NSC (Private, limited by guarantee, no share capital)",Active,United Kingdom,,24/02/2017,28.0,2.0,30/11/2025,28/02/2024,MICRO ENTITY,24/03/2018,,0,0,0,0,98000 - Residents property management,,,,0,0,https://find-and-update.company-information.service.gov.uk/company/10637307,,,,,,,,,,,,,,,,,,,,,09/03/2025,23/02/2024,51.59635672171103,-0.22649341421699723
3-7 CANNON STREET MANAGEMENT COMPANY LIMITED,09348024,,,5 SENTINEL SQUARE,,LONDON,,ENGLAND,NW4 2EL,"PRI/LTD BY GUAR/NSC (Private, limited by guarantee, no share capital)",Active,United Kingdom,,09/12/2014,31.0,12.0,30/09/2024,31/12/2022,TOTAL EXEMPTION FULL,06/01/2017,09/12/2015,0,0,0,0,98000 - Residents property management,,,,0,0,https://find-and-update.company-information.service.gov.uk/company/09348024,,,,,,,,,,,,,,,,,,,,,23/12/2024,09/12/2023,51.58694135158491,-0.21993117665454867
30 GUNTER GROVE LIMITED,11269663,,,SUITE 1 CHURCHILL HOUSE,137 - 139 BRENT STREET,LONDON,,ENGLAND,NW4 4DJ,Private Limited Company,Active,United Kingdom,,22/03/2018,31.0,3.0,31/12/2024,31/03/2023,DORMANT,19/04/2019,,0,0,0,0,98000 - Residents property management,,,,0,0,https://find-and-update.company-information.service.gov.uk/company/11269663,,,,,,,,,,,,,,,,,,,,,04/04/2025,21/03/2024,51.58862360764252,-0.22175650594586224
30 LANGHAM STREET LIMITED,09940644,,,WILBERFORCE HOUSE,STATION ROAD,LONDON,,UNITED KINGDOM,NW4 4QE,Private Limited Company,Active,United Kingdom,,07/01/2016,31.0,1.0,31/10/2025,31/01/2024,DORMANT,04/02/2017,,0,0,0,0,68320 - Management of real estate on a fee or contract basis,,,,0,0,https://find-and-update.company-information.service.gov.uk/company/09940644,,,,,,,,,,,,,,,,,,,,,27/01/2025,13/01/2024,51.57976719202784,-0.23911864673576186
30 RUNDELL CRESCENT (HENDON) MANAGEMENT LIMITED,02084421,,,8 LANSDOWN COURT,30 RUNDELL CRESCENT,LONDON,,,NW4 3BW,Private Limited Company,Active,United Kingdom,,16/12/1986,31.0,3.0,31/12/2025,31/03/2024,TOTAL EXEMPTION FULL,28/06/2017,31/05/2016,0,0,0,0,68320 - Management of real estate on a fee or contract basis,,,,0,0,https://find-and-update.company-information.service.gov.uk/company/02084421,,,,,,,,,,,,,,,,,,,,,05/06/2025,22/05/2024,51.58419220780848,-0.22960858104852547
30 WESSEX GARDENS LIMITED,13094231,,,76 TENTERDEN DRIVE,,LONDON,,ENGLAND,NW4 1EE,Private Limited Company,Active,United Kingdom,,21/12/2020,31.0,3.0,31/12/2024,31/12/2022,TOTAL EXEMPTION FULL,18/01/2022,,0,0,0,0,68209 - Other letting and operating of own or leased real estate,,,,0,0,https://find-and-update.company-information.service.gov.uk/company/13094231,,,,,,,,,,,,,,,,,,,,,03/01/2025,20/12/2023,51.59301699374495,-0.21439523768461125
300 GUARDS LIMITED,13560541,,,CHURCHILL HOUSE 137-139 BRENT STREET,HENDON,LONDON,,UNITED KINGDOM,NW4 4DJ,Private Limited Company,Active,United Kingdom,,11/08/2021,31.0,8.0,31/05/2025,31/08/2023,MICRO ENTITY,08/09/2022,,0,0,0,0,80100 - Private security activities,,,,0,0,https://find-and-update.company-information.service.gov.uk/company/13560541,,,,,,,,,,,,,,,,,,,,,24/08/2025,10/08/2024,51.58862360764252,-0.22175650594586224
33 GLENMORE ROAD LIMITED,07161484,,,SUITE 1 CHURCHILL HOUSE,137 - 139 BRENT STREET,LONDON,,ENGLAND,NW4 4DJ,Private Limited Company,Active,United Kingdom,,18/02/2010,31.0,3.0,31/12/2024,31/03/2023,DORMANT,18/03/2017,18/02/2016,0,0,0,0,98000 - Residents property management,,,,0,0,https://find-and-update.company-information.service.gov.uk/company/07161484,,,,,,,,,,,,,,,,,,,,,04/03/2025,18/02/2024,51.58862360764252,-0.22175650594586224
333 - 335 PORTOBELLO ROAD FREEHOLD LIMITED,08087736,,,SUITE 1 CHURCHILL HOUSE,137 -139 BRENT STREET,LONDON,,ENGLAND,NW4 4DJ,Private Limited Company,Active,United Kingdom,,29/05/2012,31.0,5.0,28/02/2025,31/05/2023,MICRO ENTITY,26/06/2017,29/05/2016,0,0,0,0,98000 - Residents property management,,,,0,0,https://find-and-update.company-information.service.gov.uk/company/08087736,,,,,,,,,,,,,,,,,,,,,12/06/2025,29/05/2024,51.58862360764252,-0.22175650594586224
359 ARCH LTD,10932047,,,22 ELMS AVENUE,,LONDON,,UNITED KINGDOM,NW4 2PG,Private Limited Company,Active,United Kingdom,,24/08/2017,31.0,8.0,31/05/2025,31/08/2023,MICRO ENTITY,21/09/2018,,7,4,0,3,68100 - Buying and selling of own real estate,,,,0,0,https://find-and-update.company-information.service.gov.uk/company/10932047,,,,,,,,,,,,,,,,,,,,,06/09/2025,23/08/2024,51.582158339597314,-0.2182128446141092
36-37 GREAT RUSSELL STREET LTD,14125370,,,BUCKINGHAM HOUSE 2ND FLOOR,45 VIVIAN AVENUE,LONDON,,UNITED KINGDOM,NW4 3XA,Private Limited Company,Active,United Kingdom,,23/05/2022,31.0,5.0,28/02/2026,31/05/2024,TOTAL EXEMPTION FULL,20/06/2023,,4,4,0,0,68209 - Other letting and operating of own or leased real estate,,,,0,0,https://find-and-update.company-information.service.gov.uk/company/14125370,,,,,,,,,,,,,,,,,,,,,05/06/2025,22/05/2024,51.582277,-0.229946
369 TRADING LIMITED,11758479,,,ENTERPRISE HOUSE 2 THE CREST,HENDON,LONDON,,UNITED KINGDOM,NW4 2HN,Private Limited Company,Active,United Kingdom,,09/01/2019,31.0,1.0,31/10/2024,31/01/2023,TOTAL EXEMPTION FULL,06/02/2020,,0,0,0,0,47750 - Retail sale of cosmetic and toilet articles in specialised stores,,,,0,0,https://find-and-update.company-information.service.gov.uk/company/11758479,,,,,,,,,,,,,,,,,,,,,22/01/2025,08/01/2024,51.58538289624877,-0.21915487170432882
37 QUEEN ANNE ROAD LIMITED,07788293,,,SUITE 1 CHURCHILL HOUSE,137-139 BRENT STREET,LONDON,,ENGLAND,NW4 4DJ,"PRI/LTD BY GUAR/NSC (Private, limited by guarantee, no share capital)",Active,United Kingdom,,27/09/2011,29.0,9.0,29/06/2025,29/09/2023,MICRO ENTITY,25/10/2016,27/09/2015,0,0,0,0,68320 - Management of real estate on a fee or contract basis,,,,0,0,https://find-and-update.company-information.service.gov.uk/company/07788293,,,,,,,,,,,,,,,,,,,,,11/10/2025,27/09/2024,51.58862360764252,-0.22175650594586224
37SMS1 LTD,11779647,,,129 STATION ROAD,,LONDON,,ENGLAND,NW4 4NJ,Private Limited Company,Active,United Kingdom,,22/01/2019,31.0,1.0,31/10/2025,31/01/2024,TOTAL EXEMPTION FULL,19/02/2020,,0,0,0,0,46900 - Non-specialised wholesale trade,47789 - Other retail sale of new goods in specialised stores (not commercial art galleries and opticians),,,0,0,https://find-and-update.company-information.service.gov.uk/company/11779647,,,,,,,,,,,,,,,,,,,,,25/03/2025,11/03/2024,51.584515733001986,-0.23317574360505883
38 SHERRIFF ROAD MANAGEMENT COMPANY LIMITED,06382074,,,2 ST. MARYS CRESCENT,,LONDON,,,NW4 4LH,Private Limited Company,Active,United Kingdom,,26/09/2007,24.0,12.0,24/09/2025,24/12/2023,DORMANT,24/10/2016,26/09/2015,0,0,0,0,98000 - Residents property management,,,,0,0,https://find-and-update.company-information.service.gov.uk/company/06382074,,,,,,,,,,,,,,,,,,,,,10/10/2025,26/09/2024,51.59297825871089,-0.22905044009453596
39 BERTRAM ROAD LIMITED,04979718,,,39 BERTRAM ROAD,LONDON,,,,NW4 3PR,Private Limited Company,Active,United Kingdom,,01/12/2003,31.0,12.0,30/09/2025,31/12/2023,TOTAL EXEMPTION FULL,29/12/2016,01/12/2015,0,0,0,0,98000 - Residents property management,,,,0,0,https://find-and-update.company-information.service.gov.uk/company/04979718,,,,,,,,,,,,,,,,,,,,,15/12/2024,01/12/2023,51.5787149976372,-0.23432440272169291
392 TO 402 LILLIE ROAD LIMITED,08119499,,,5 SENTINEL SQUARE,HENDON,LONDON,,,NW4 2EL,Private Limited Company,Active,United Kingdom,,26/06/2012,29.0,12.0,29/09/2025,29/12/2023,TOTAL EXEMPTION FULL,24/07/2017,26/06/2016,2,2,0,0,99999 - Dormant Company,,,,0,0,https://find-and-update.company-information.service.gov.uk/company/08119499,,,,,,,,,,,,,,,,,,,,,10/07/2025,26/06/2024,51.58694135158491,-0.21993117665454867
3A@ER CONSTRUCTION LTD,15690548,,,32 VIVIAN AVENUE,,LONDON,,ENGLAND,NW4 3XP,Private Limited Company,Active,United Kingdom,,29/04/2024,30.0,4.0,29/01/2026,,NO ACCOUNTS FILED,27/05/2025,,0,0,0,0,41201 - Construction of commercial buildings,41202 - Construction of domestic buildings,,,0,0,https://find-and-update.company-information.service.gov.uk/company/15690548,,,,,,,,,,,,,,,,,,,,,12/05/2025,,51.582747970234,-0.22924613132514018
3D MEDIA LTD,11898584,,,3 - 4 SENTINEL SQUARE,,LONDON,,ENGLAND,NW4 2EL,Private Limited Company,Active,United Kingdom,,22/03/2019,31.0,3.0,31/12/2025,31/03/2024,MICRO ENTITY,19/04/2020,,0,0,0,0,90040 - Operation of arts facilities,,,,0,0,https://find-and-update.company-information.service.gov.uk/company/11898584,,,,,,,,,,,,,,,,,,,,,04/04/2025,21/03/2024,51.58694135158491,-0.21993117665454867
4 LANHILL ROAD MAIDA VALE RTM COMPANY LIMITED,10903590,,,5 SENTINEL SQUARE,,HENDON,LONDON,UNITED KINGDOM,NW4 2EL,"PRI/LTD BY GUAR/NSC (Private, limited by guarantee, no share capital)",Active,United Kingdom,,07/08/2017,31.0,12.0,30/09/2024,31/12/2022,TOTAL EXEMPTION FULL,04/09/2018,,0,0,0,0,98000 - Residents property management,,,,0,0,https://find-and-update.company-information.service.gov.uk/company/10903590,,,,,,,,,,,,,,,,,,,,,20/08/2025,06/08/2024,51.58694135158491,-0.21993117665454867
4 WARRINGTON CRESCENT LIMITED,01864669,,,WILBERFORCE HOUSE,STATION ROAD,LONDON,,,NW4 4QE,Private Limited Company,Active,United Kingdom,,19/11/1984,24.0,3.0,24/12/2025,24/03/2024,MICRO ENTITY,25/08/2016,28/07/2015,0,0,0,0,98000 - Residents property management,,,,0,0,https://find-and-update.company-information.service.gov.uk/company/01864669,,,,,,,,,,,,,,,,,,,,,11/08/2025,28/07/2024,51.57976719202784,-0.23911864673576186
40-46 COMMERCIAL STREET HEREFORD LIMITED,13999262,,,5 SENTINEL SQUARE,,LONDON,,ENGLAND,NW4 2EL,Private Limited Company,Active,United Kingdom,,23/03/2022,31.0,3.0,31/12/2024,31/03/2023,DORMANT,20/04/2023,,0,0,0,0,68209 - Other letting and operating of own or leased real estate,68320 - Management of real estate on a fee or contract basis,,,0,0,https://find-and-update.company-information.service.gov.uk/company/13999262,,,,,,,,,,,,,,,,,,,,,05/04/2025,22/03/2024,51.58694135158491,-0.21993117665454867
40BPM LTD,12309185,,,CHURCHILL HOUSE 137-139,BRENT STREET,LONDON,LONDON,UNITED KINGDOM,NW4 4DJ,Private Limited Company,Active,United Kingdom,,11/11/2019,30.0,11.0,31/08/2025,30/11/2023,DORMANT,09/12/2020,,0,0,0,0,59112 - Video production activities,63120 - Web portals,70229 - Management consultancy activities other than financial management,74202 - Other specialist photography,0,0,https://find-and-update.company-information.service.gov.uk/company/12309185,,,,,,,,,,,,,,,,,,,,,24/11/2025,10/11/2024,51.58862360764252,-0.22175650594586224
41 VICTORIA ROAD LIMITED,14924462,,,13 APREY GARDENS,,LONDON,,ENGLAND,NW4 2RH,Private Limited Company,Active,United Kingdom,,08/06/2023,30.0,6.0,08/03/2025,,NO ACCOUNTS FILED,06/07/2024,,3,3,0,0,68209 - Other letting and operating of own or leased real estate,,,,0,0,https://find-and-update.company-information.service.gov.uk/company/14924462,,,,,,,,,,,,,,,,,,,,,21/06/2025,07/06/2024,51.588684170343384,-0.21981974850304986
41-41A ALGERNON ROAD LTD,13378529,,,41 ALGERNON ROAD,,LONDON,,UNITED KINGDOM,NW4 3TA,Private Limited Company,Active,United Kingdom,,05/05/2021,31.0,5.0,28/02/2025,31/05/2023,MICRO ENTITY,02/06/2022,,0,0,0,0,68100 - Buying and selling of own real estate,68209 - Other letting and operating of own or leased real estate,,,0,0,https://find-and-update.company-information.service.gov.uk/company/13378529,,,,,,,,,,,,,,,,,,,,,12/06/2025,29/05/2024,51.57935681661204,-0.23694072652874865
44LINKED LTD,12081893,,,WILBERFORCE HOUSE,STATION ROAD,LONDON,UNIT,UNITED KINGDOM,NW4 4QE,Private Limited Company,Active,United Kingdom,,03/07/2019,31.0,12.0,30/09/2025,31/12/2023,TOTAL EXEMPTION FULL,31/07/2020,,0,0,0,0,82990 - Other business support service activities n.e.c.,,,,0,0,https://find-and-update.company-information.service.gov.uk/company/12081893,,,,,,,,,,,,,,,,,,,,,10/12/2025,26/11/2024,51.57976719202784,-0.23911864673576186
45 CONNAUGHT SQUARE FREEHOLD LIMITED,07277962,PARKGATE ASPEN LTD,,WILBERFORCE HOUSE,STATION ROAD,LONDON,,ENGLAND,NW4 4QE,Private Limited Company,Active,United Kingdom,,08/06/2010,30.0,6.0,31/03/2025,30/06/2023,DORMANT,06/07/2017,08/06/2016,0,0,0,0,98000 - Residents property management,,,,0,0,https://find-and-update.company-information.service.gov.uk/company/07277962,07/11/2014,RJB FREEHOLD NOMINEE NO.1 LIMITED,,,,,,,,,,,,,,,,,,,22/06/2025,08/06/2024,51.57976719202784,-0.23911864673576186
47 SG LTD,13560368,,,47A SUNNY GARDENS ROAD,,LONDON,,ENGLAND,NW4 1SJ,Private Limited Company,Active - Proposal to Strike off,United Kingdom,,11/08/2021,31.0,8.0,31/05/2025,31/08/2023,DORMANT,08/09/2022,,0,0,0,0,68100 - Buying and selling of own real estate,,,,0,0,https://find-and-update.company-information.service.gov.uk/company/13560368,,,,,,,,,,,,,,,,,,,,,24/08/2024,10/08/2023,51.593213802132915,-0.2249988654051587
5 STAR AFGHAN PIZZA & GRILL LIMITED,14433577,,,85 BRENT STREET,,LONDON,,ENGLAND,NW4 2DY,Private Limited Company,Active,United Kingdom,,20/10/2022,31.0,10.0,31/07/2025,31/10/2023,UNAUDITED ABRIDGED,17/11/2023,,0,0,0,0,56103 - Take-away food shops and mobile food stands,,,,0,0,https://find-and-update.company-information.service.gov.uk/company/14433577,,,,,,,,,,,,,,,,,,,,,02/09/2025,19/08/2024,51.586720596540786,-0.22079147822747808
50 RANDOLPH AVENUE LIMITED,01621712,,,SUITE 1 CHURCHILL HOUSE,137-139 BRENT STREET,LONDON,,ENGLAND,NW4 4DJ,Private Limited Company,Active,United Kingdom,,12/03/1982,30.0,9.0,30/06/2025,30/09/2023,MICRO ENTITY,05/03/2017,05/02/2016,0,0,0,0,98000 - Residents property management,,,,0,0,https://find-and-update.company-information.service.gov.uk/company/01621712,,,,,,,,,,,,,,,,,,,,,19/02/2025,05/02/2024,51.58862360764252,-0.22175650594586224
52-54 LAVENDER HILL LIMITED,04697016,,,C/O MORELAND ESTATE MANAGEMENT,5 SENTINEL SQUARE,LONDON,,,NW4 2EL,Private Limited Company,Active,United Kingdom,,13/03/2003,31.0,5.0,28/02/2025,31/05/2023,DORMANT,10/04/2017,13/03/2016,0,0,0,0,98000 - Residents property management,,,,0,0,https://find-and-update.company-information.service.gov.uk/company/04697016,,,,,,,,,,,,,,,,,,,,,26/02/2025,12/02/2024,51.58694135158491,-0.21993117665454867
52/54 FINCHLEY LANE LIMITED,02582459,,,FLAT 1,52 FINCHLEY LANE,LONDON,,,NW4 1DJ,"PRI/LTD BY GUAR/NSC (Private, limited by guarantee, no share capital)",Active,United Kingdom,,14/02/1991,31.0,3.0,31/12/2024,31/03/2023,MICRO ENTITY,14/03/2017,14/02/2016,0,0,0,0,68209 - Other letting and operating of own or leased real estate,,,,0,0,https://find-and-update.company-information.service.gov.uk/company/02582459,,,,,,,,,,,,,,,,,,,,,12/02/2025,29/01/2024,51.58964339839979,-0.21784781780446552
53 FINCHLEY LANE LTD,13615509,,,74 BRENT STREET,,LONDON,,ENGLAND,NW4 2ES,Private Limited Company,Active,United Kingdom,,10/09/2021,29.0,9.0,29/06/2025,30/09/2023,TOTAL EXEMPTION FULL,08/10/2022,,1,1,0,0,98000 - Residents property management,,,,0,0,https://find-and-update.company-information.service.gov.uk/company/13615509,,,,,,,,,,,,,,,,,,,,,18/01/2025,04/01/2024,51.58502144664248,-0.219039092582961
53 GLENELDON ROAD MANAGEMENT COMPANY LIMITED,02293454,,,113 BRENT STREET,,LONDON,,UNITED KINGDOM,NW4 2DX,"PRI/LTD BY GUAR/NSC (Private, limited by guarantee, no share capital)",Active,United Kingdom,,06/09/1988,31.0,12.0,30/09/2025,31/12/2023,DORMANT,18/07/2017,20/06/2016,0,0,0,0,98000 - Residents property management,,,,0,0,https://find-and-update.company-information.service.gov.uk/company/02293454,,,,,,,,,,,,,,,,,,,,,04/07/2025,20/06/2024,51.587383863342616,-0.22124193360195973
53/59 BELSIZE AVENUE MANAGEMENT COMPANY LIMITED,03077059,PARKGATE ASPEN,,WILBERFORCE HOUSE,STATION ROAD,LONDON,,ENGLAND,NW4 4QE,Private Limited Company,Active,United Kingdom,,07/07/1995,31.0,12.0,30/09/2025,31/12/2023,MICRO ENTITY,04/08/2016,07/07/2015,0,0,0,0,98000 - Residents property management,,,,0,0,https://find-and-update.company-information.service.gov.uk/company/03077059,,,,,,,,,,,,,,,,,,,,,21/07/2025,07/07/2024,51.57976719202784,-0.23911864673576186
54 FORGE LTD,15662993,,,129 STATION ROAD,,HENDON,,ENGLAND,NW4 4NJ,Private Limited Company,Active,United Kingdom,,20/04/2024,30.0,4.0,20/01/2026,,NO ACCOUNTS FILED,18/05/2025,,1,1,0,0,68100 - Buying and selling of own real estate,68209 - Other letting and operating of own or leased real estate,,,0,0,https://find-and-update.company-information.service.gov.uk/company/15662993,,,,,,,,,,,,,,,,,,,,,03/05/2025,,51.584515733001986,-0.23317574360505883
6 GOLDERS RISE FREEHOLD LTD,10015326,,,10 GOLDERS RISE,10 GOLDERS RISE,LONDON,,ENGLAND,NW4 2HR,"PRI/LTD BY GUAR/NSC (Private, limited by guarantee, no share capital)",Active,United Kingdom,,19/02/2016,29.0,2.0,30/11/2024,28/02/2023,DORMANT,19/03/2017,,0,0,0,0,68320 - Management of real estate on a fee or contract basis,,,,0,0,https://find-and-update.company-information.service.gov.uk/company/10015326,,,,,,,,,,,,,,,,,,,,,16/11/2024,02/11/2023,51.58509927945877,-0.21765032437439566
6 MOUNT ROAD FREEHOLD LIMITED,15850541,,,6B MOUNT ROAD,,LONDON,,UNITED KINGDOM,NW4 3PU,Private Limited Company,Active,United Kingdom,,22/07/2024,31.0,7.0,22/04/2026,,NO ACCOUNTS FILED,19/08/2025,,0,0,0,0,98000 - Residents property management,,,,0,0,https://find-and-update.company-information.service.gov.uk/company/15850541,,,,,,,,,,,,,,,,,,,,,04/08/2025,,51.57774334120912,-0.23548777725278644
60 GUILFORD AVENUE LIMITED,08409418,,,5 SENTINEL SQUARE,,LONDON,,ENGLAND,NW4 2EL,"PRI/LTD BY GUAR/NSC (Private, limited by guarantee, no share capital)",Active,United Kingdom,,19/02/2013,28.0,2.0,30/11/2024,28/02/2023,DORMANT,19/03/2017,19/02/2016,0,0,0,0,99999 - Dormant Company,,,,0,0,https://find-and-update.company-information.service.gov.uk/company/08409418,,,,,,,,,,,,,,,,,,,,,05/03/2025,19/02/2024,51.58694135158491,-0.21993117665454867
613RENOVATIONS LTD,15931360,,,"FLAT 1, EDINBURGH HOUSE",TENTERDEN GROVE,LONDON,,UNITED KINGDOM,NW4 1TL,Private Limited Company,Active,United Kingdom,,03/09/2024,30.0,9.0,03/06/2026,,NO ACCOUNTS FILED,01/10/2025,,0,0,0,0,41100 - Development of building projects,,,,0,0,https://find-and-update.company-information.service.gov.uk/company/15931360,,,,,,,,,,,,,,,,,,,,,16/09/2025,,51.59294116483751,-0.2188737196791888
65 DARTMOUTH ROAD LIMITED,13832213,,,65 DARTMOUTH ROAD,,HENDON,,ENGLAND,NW4 3HY,Private Limited Company,Active,United Kingdom,,06/01/2022,31.0,1.0,31/10/2025,31/01/2024,DORMANT,03/02/2023,,0,0,0,0,68209 - Other letting and operating of own or leased real estate,68320 - Management of real estate on a fee or contract basis,,,0,0,https://find-and-update.company-information.service.gov.uk/company/13832213,,,,,,,,,,,,,,,,,,,,,19/01/2025,05/01/2024,51.57927839603054,-0.2353128599282145
65 RAMSDEN ROAD MANAGEMENT COMPANY LIMITED,02428337,,,113 BRENT STREET,,LONDON,,UNITED KINGDOM,NW4 2DX,"PRI/LTD BY GUAR/NSC (Private, limited by guarantee, no share capital)",Active,United Kingdom,,02/10/1989,31.0,12.0,30/09/2025,31/12/2023,DORMANT,18/07/2017,20/06/2016,0,0,0,0,74990 - Non-trading company,98000 - Residents property management,,,0,0,https://find-and-update.company-information.service.gov.uk/company/02428337,,,,,,,,,,,,,,,,,,,,,04/07/2025,20/06/2024,51.587383863342616,-0.22124193360195973
66 REIGHTON RD LTD,12339887,,,SUITE 1 CHURCHILL HOUSE,137 - 139 BRENT STREET,LONDON,,ENGLAND,NW4 4DJ,Private Limited Company,Active,United Kingdom,,29/11/2019,30.0,11.0,31/08/2025,30/11/2023,MICRO ENTITY,27/12/2020,,0,0,0,0,98000 - Residents property management,,,,0,0,https://find-and-update.company-information.service.gov.uk/company/12339887,,,,,,,,,,,,,,,,,,,,,12/12/2024,28/11/2023,51.58862360764252,-0.22175650594586224
68 BRONDESBURY VILLAS LIMITED,06061270,,,113 BRENT STREET,,LONDON,,UNITED KINGDOM,NW4 2DX,Private Limited Company,Active,United Kingdom,,23/01/2007,27.0,6.0,27/03/2025,31/12/2022,TOTAL EXEMPTION FULL,20/02/2017,23/01/2016,0,0,0,0,98000 - Residents property management,,,,0,0,https://find-and-update.company-information.service.gov.uk/company/06061270,,,,,,,,,,,,,,,,,,,,,06/02/2025,23/01/2024,51.587383863342616,-0.22124193360195973
69 BRAMPTON MANAGEMENT CO LTD,15814846,,,42 WATFORD WAY,SUITE 228,LONDON,,ENGLAND,NW4 3AL,Private Limited Company,Active,United Kingdom,,02/07/2024,31.0,7.0,02/04/2026,,NO ACCOUNTS FILED,30/07/2025,,0,0,0,0,98000 - Residents property management,,,,0,0,https://find-and-update.company-information.service.gov.uk/company/15814846,,,,,,,,,,,,,,,,,,,,,15/07/2025,,51.58406896669668,-0.22799673089579506
7 SINS TATTOO STUDIO LIMITED,11987574,,,70 GREYHOUND HILL,HENDON,LONDON,,UNITED KINGDOM,NW4 4JB,Private Limited Company,Active - Proposal to Strike off,United Kingdom,,09/05/2019,31.0,5.0,29/02/2024,31/05/2022,MICRO ENTITY,06/06/2020,,0,0,0,0,96090 - Other service activities n.e.c.,,,,0,0,https://find-and-update.company-information.service.gov.uk/company/11987574,,,,,,,,,,,,,,,,,,,,,27/04/2024,13/04/2023,51.59266321202942,-0.23320611482428885
7 STAR VENTURES LTD,15451953,,,45 CLIVE LODGE SHIREHALL LANE,,LONDON,,UNITED KINGDOM,NW4 3RG,Private Limited Company,Active,United Kingdom,,30/01/2024,31.0,1.0,30/10/2025,,NO ACCOUNTS FILED,27/02/2025,,0,0,0,0,47910 - Retail sale via mail order houses or via Internet,"47990 - Other retail sale not in stores, stalls or markets",,,0,0,https://find-and-update.company-information.service.gov.uk/company/15451953,,,,,,,,,,,,,,,,,,,,,12/02/2025,,51.57789917105406,-0.21783099485657242
7 SUNNY GARDENS (FREEHOLD) LIMITED,14025755,,,7 SUNNY GARDENS ROAD,,LONDON,,ENGLAND,NW4 1SL,Private Limited Company,Active,United Kingdom,,05/04/2022,30.0,4.0,31/01/2025,30/04/2023,DORMANT,03/05/2023,,0,0,0,0,98000 - Residents property management,,,,0,0,https://find-and-update.company-information.service.gov.uk/company/14025755,,,,,,,,,,,,,,,,,,,,,10/05/2025,26/04/2024,51.591919494830485,-0.22444297329050608
7 WEDDERBURN FREEHOLD LTD,14810654,,,51 BRENT STREET,,LONDON,,ENGLAND,NW4 2EA,Private Limited Company,Active,United Kingdom,,18/04/2023,30.0,4.0,31/01/2026,30/04/2024,DORMANT,16/05/2024,,0,0,0,0,96090 - Other service activities n.e.c.,,,,0,0,https://find-and-update.company-information.service.gov.uk/company/14810654,,,,,,,,,,,,,,,,,,,,,01/05/2025,17/04/2024,51.58601326812441,-0.22040049707159365
7-18 QUEENS MANSIONS LIMITED,03420849,,,5 SENTINEL SQUARE,,LONDON,,ENGLAND,NW4 2EL,Private Limited Company,Active - Proposal to Strike off,United Kingdom,,12/08/1997,30.0,6.0,31/03/2025,30/06/2023,DORMANT,09/09/2016,13/08/2015,0,0,0,0,98000 - Residents property management,,,,0,0,https://find-and-update.company-information.service.gov.uk/company/03420849,,,,,,,,,,,,,,,,,,,,,27/08/2024,13/08/2023,51.58694135158491,-0.21993117665454867
7/8 ENNISMORE GARDENS RESIDENTS ASSOCIATION LIMITED,01171640,,,WILBERFORCE HOUSE,STATION ROAD,LONDON,,ENGLAND,NW4 4QE,"PRI/LTD BY GUAR/NSC (Private, limited by guarantee, no share capital)",Active,United Kingdom,,24/05/1974,31.0,5.0,28/02/2026,31/05/2024,DORMANT,30/08/2016,02/08/2015,0,0,0,0,68320 - Management of real estate on a fee or contract basis,,,,0,0,https://find-and-update.company-information.service.gov.uk/company/01171640,,,,,,,,,,,,,,,,,,,,,16/08/2025,02/08/2024,51.57976719202784,-0.23911864673576186
700GARRAT LTD,12753598,,,65A WATFORD WAY,,LONDON,,ENGLAND,NW4 3AQ,Private Limited Company,Active,United Kingdom,,19/07/2020,28.0,7.0,28/04/2025,31/07/2023,TOTAL EXEMPTION FULL,16/08/2021,,2,2,0,0,68209 - Other letting and operating of own or leased real estate,,,,0,0,https://find-and-update.company-information.service.gov.uk/company/12753598,,,,,,,,,,,,,,,,,,,,,12/11/2024,29/10/2023,51.58452799226046,-0.22981204609330097
71-73 UPPER BERKELEY STREET MANAGEMENT COMPANY LIMITED,02508395,,,WILBERFORCE HOUSE,STATION ROAD,LONDON,,,NW4 4QE,Private Limited Company,Active,United Kingdom,,05/06/1990,24.0,3.0,24/12/2025,24/03/2024,MICRO ENTITY,30/06/2017,02/06/2016,0,0,0,0,98000 - Residents property management,,,,0,0,https://find-and-update.company-information.service.gov.uk/company/02508395,,,,,,,,,,,,,,,,,,,,,16/06/2025,02/06/2024,51.57976719202784,-0.23911864673576186
73-81 WOODBURN CLOSE FREEHOLD LIMITED,07144873,,,80 WOODBURN CLOSE,HENDON,LONDON,,,NW4 2NF,Private Limited Company,Active,United Kingdom,,03/02/2010,27.0,2.0,27/11/2025,27/02/2024,DORMANT,03/03/2017,03/02/2016,0,0,0,0,98000 - Residents property management,,,,0,0,https://find-and-update.company-information.service.gov.uk/company/07144873,,,,,,,,,,,,,,,,,,,,,26/02/2025,12/02/2024,51.582156310829035,-0.21275698329256085
74 FORTUNE GREEN ROAD LIMITED,11398819,,,BUCKINGHAM HOUSE 2ND FLOOR,45 VIVIAN AVENUE,LONDON,,UNITED KINGDOM,NW4 3XA,Private Limited Company,Active,United Kingdom,,05/06/2018,31.0,5.0,28/02/2025,31/05/2023,TOTAL EXEMPTION FULL,03/07/2019,,5,1,0,4,68209 - Other letting and operating of own or leased real estate,,,,0,0,https://find-and-update.company-information.service.gov.uk/company/11398819,,,,,,,,,,,,,,,,,,,,,20/06/2025,06/06/2024,51.582277,-0.229946
753 FINCHLEY ROAD FREEHOLD LIMITED,11059286,,,BUCKINGHAM HOUSE,45 VIVIAN AVENUE,LONDON,,UNITED KINGDOM,NW4 3XA,Private Limited Company,Active,United Kingdom,,10/11/2017,30.0,11.0,31/08/2025,30/11/2023,DORMANT,08/12/2018,,0,0,0,0,98000 - Residents property management,,,,0,0,https://find-and-update.company-information.service.gov.uk/company/11059286,,,,,,,,,,,,,,,,,,,,,23/11/2025,09/11/2024,51.582277,-0.229946
76 FINCHLEY LANE FREEHOLD LTD,10023755,,,76 FINCHLEY LANE,,LONDON,,,NW4 1DH,Private Limited Company,Active,United Kingdom,,24/02/2016,29.0,2.0,30/11/2025,29/02/2024,MICRO ENTITY,24/03/2017,,0,0,0,0,55900 - Other accommodation,,,,0,0,https://find-and-update.company-information.service.gov.uk/company/10023755,,,,,,,,,,,,,,,,,,,,,09/03/2025,23/02/2024,51.58966839009603,-0.2165331560700279
770 HOLDINGS LIMITED,15439430,,,38 ALEXANDRA ROAD,,LONDON,,ENGLAND,NW4 2SA,Private Limited Company,Active,United Kingdom,,24/01/2024,31.0,1.0,24/10/2025,,NO ACCOUNTS FILED,21/02/2025,,0,0,0,0,96090 - Other service activities n.e.c.,,,,0,0,https://find-and-update.company-information.service.gov.uk/company/15439430,,,,,,,,,,,,,,,,,,,,,06/02/2025,,51.587688177645674,-0.21522489888767402
7MOUNTAINS UK LIMITED,04254983,,,WILBERFORCE HOUSE,STATION ROAD,LONDON,,,NW4 4QE,Private Limited Company,Active,United Kingdom,,18/07/2001,31.0,12.0,30/09/2025,31/12/2023,TOTAL EXEMPTION FULL,15/08/2016,18/07/2015,0,0,0,0,70229 - Management consultancy activities other than financial management,,,,0,0,https://find-and-update.company-information.service.gov.uk/company/04254983,,,,,,,,,,,,,,,,,,,,,01/08/2025,18/07/2024,51.57976719202784,-0.23911864673576186
7SKILLS LTD,12066372,,,25 ALBERT ROAD,,LONDON,,ENGLAND,NW4 2SH,Private Limited Company,Active,United Kingdom,,24/06/2019,30.0,6.0,31/03/2025,30/06/2023,TOTAL EXEMPTION FULL,22/07/2020,,0,0,0,0,41201 - Construction of commercial buildings,41202 - Construction of domestic buildings,,,0,0,https://find-and-update.company-information.service.gov.uk/company/12066372,,,,,,,,,,,,,,,,,,,,,23/06/2025,09/06/2024,51.58790429404589,-0.21465344379232673
8 BRAGGS LANE MANAGEMENT COMPANY LIMITED,07636373,PA REGISTRARS LTD,,WILBERFORCE HOUSE,STATION ROAD,LONDON,,,NW4 4QE,Private Limited Company,Active,United Kingdom,,17/05/2011,31.0,5.0,28/02/2025,31/05/2023,DORMANT,14/06/2017,17/05/2016,0,0,0,0,98000 - Residents property management,,,,0,0,https://find-and-update.company-information.service.gov.uk/company/07636373,,,,,,,,,,,,,,,,,,,,,31/05/2025,17/05/2024,51.57976719202784,-0.23911864673576186
8 COVERS LTD,15320245,,,FLAT 6 RAMBLER COURT,7 SWYNFORD GARDENS,LONDON,,UNITED KINGDOM,NW4 4XL,Private Limited Company,Active,United Kingdom,,30/11/2023,31.0,3.0,31/12/2025,31/03/2024,DORMANT,28/12/2024,,0,0,0,0,82920 - Packaging activities,,,,0,0,https://find-and-update.company-information.service.gov.uk/company/15320245,,,,,,,,,,,,,,,,,,,,,13/12/2024,,51.5885745843192,-0.23459177364201597
8 SECOND AVENUE LTD,07038976,EDMUND GAIR,,8C SECOND AVENUE,HENDON,LONDON,,,NW4 2RN,"PRI/LTD BY GUAR/NSC (Private, limited by guarantee, no share capital)",Active,United Kingdom,,13/10/2009,31.0,10.0,31/07/2025,31/10/2023,DORMANT,10/11/2016,13/10/2015,0,0,0,0,70100 - Activities of head offices,99999 - Dormant Company,,,0,0,https://find-and-update.company-information.service.gov.uk/company/07038976,,,,,,,,,,,,,,,,,,,,,27/10/2025,13/10/2024,51.58896608914444,-0.21765778532933638
8 THORNHILL ROAD MANAGEMENT COMPANY LIMITED,02346421,,,113 BRENT STREET,,LONDON,,UNITED KINGDOM,NW4 2DX,"PRI/LTD BY GUAR/NSC (Private, limited by guarantee, no share capital)",Active,United Kingdom,,13/02/1989,31.0,12.0,30/09/2025,31/12/2023,DORMANT,18/07/2017,20/06/2016,0,0,0,0,74990 - Non-trading company,98000 - Residents property management,,,0,0,https://find-and-update.company-information.service.gov.uk/company/02346421,,,,,,,,,,,,,,,,,,,,,04/07/2025,20/06/2024,51.587383863342616,-0.22124193360195973
80 TALBOT ROAD FREEHOLD LIMITED,10905024,,,FLAT 3 HARRY COURT,13 WENLOCK GARDENS,LONDON,,ENGLAND,NW4 4XJ,Private Limited Company,Active,United Kingdom,,08/08/2017,25.0,3.0,25/12/2025,25/03/2024,MICRO ENTITY,05/09/2018,,0,0,0,0,98000 - Residents property management,,,,0,0,https://find-and-update.company-information.service.gov.uk/company/10905024,,,,,,,,,,,,,,,,,,,,,21/08/2025,07/08/2024,51.58849626252927,-0.23356987627206932
80DST HEALTH & WELLNESS LIMITED,14564721,,,129 STATION ROAD,,LONDON,,ENGLAND,NW4 4NJ,Private Limited Company,Active,United Kingdom,,01/01/2023,31.0,1.0,31/10/2025,31/01/2024,TOTAL EXEMPTION FULL,29/01/2024,,0,0,0,0,"47240 - Retail sale of bread, cakes, flour confectionery and sugar confectionery in specialised stores",,,,0,0,https://find-and-update.company-information.service.gov.uk/company/14564721,24/07/2023,MINI'S BAKERY LTD,,,,,,,,,,,,,,,,,,,14/01/2025,31/12/2023,51.584515733001986,-0.23317574360505883
81 AUDLEY ROAD FREEHOLD LIMITED,12577368,,,81 AUDLEY ROAD,HENDON,LONDON,,ENGLAND,NW4 3EU,Private Limited Company,Active,United Kingdom,,29/04/2020,29.0,4.0,29/01/2025,30/04/2023,MICRO ENTITY,27/05/2021,,0,0,0,0,98000 - Residents property management,,,,0,0,https://find-and-update.company-information.service.gov.uk/company/12577368,,,,,,,,,,,,,,,,,,,,,12/05/2025,28/04/2024,51.57942289271476,-0.23356089324007226
83 CRAMPTON STREET (FREEHOLD) LIMITED,10726324,,,WILBERFORCE HOUSE,STATION ROAD,LONDON,,ENGLAND,NW4 4QE,Private Limited Company,Active,United Kingdom,,13/04/2017,30.0,6.0,31/03/2026,30/06/2024,MICRO ENTITY,11/05/2018,,0,0,0,0,98000 - Residents property management,,,,0,0,https://find-and-update.company-information.service.gov.uk/company/10726324,,,,,,,,,,,,,,,,,,,,,02/01/2025,19/12/2023,51.57976719202784,-0.23911864673576186
83 CRAMPTON STREET (MANAGEMENT) LIMITED,06059669,,,WILBERFORCE HOUSE,STATION ROAD,LONDON,,ENGLAND,NW4 4QE,Private Limited Company,Active,United Kingdom,,22/01/2007,30.0,6.0,31/03/2026,30/06/2024,DORMANT,19/02/2017,22/01/2016,0,0,0,0,98000 - Residents property management,,,,0,0,https://find-and-update.company-information.service.gov.uk/company/06059669,,,,,,,,,,,,,,,,,,,,,05/02/2025,22/01/2024,51.57976719202784,-0.23911864673576186
83 CRAMPTON STREET RTM COMPANY LIMITED,07505529,,,C/O PA REGISTRARS LTD WILBERFORCE HOUSE,STATION ROAD,LONDON,,,NW4 4QE,"PRI/LTD BY GUAR/NSC (Private, limited by guarantee, no share capital)",Active,United Kingdom,,26/01/2011,30.0,6.0,31/03/2026,30/06/2024,DORMANT,23/02/2017,26/01/2016,0,0,0,0,98000 - Residents property management,,,,0,0,https://find-and-update.company-information.service.gov.uk/company/07505529,,,,,,,,,,,,,,,,,,,,,09/02/2025,26/01/2024,51.57976719202784,-0.23911864673576186
88 SEVINGTON ROAD LIMITED,06005927,,,88 SEVINGTON ROAD,HENDON,LONDON,,,NW4 3RS,"PRI/LTD BY GUAR/NSC (Private, limited by guarantee, no share capital)",Active,United Kingdom,,22/11/2006,30.0,11.0,31/08/2026,30/11/2024,MICRO ENTITY,20/12/2016,22/11/2015,0,0,0,0,68320 - Management of real estate on a fee or contract basis,,,,0,0,https://find-and-update.company-information.service.gov.uk/company/06005927,,,,,,,,,,,,,,,,,,,,,06/12/2025,22/11/2024,51.581170536156435,-0.23197762252680793
9 EVENT MANAGEMENT AND PRODUCTION LTD,08090090,,,3-4 SENTINEL SQUARE,,LONDON,,,NW4 2EL,Private Limited Company,Active,United Kingdom,,31/05/2012,31.0,3.0,31/12/2025,31/03/2024,MICRO ENTITY,28/06/2017,31/05/2016,0,0,0,0,96090 - Other service activities n.e.c.,,,,0,0,https://find-and-update.company-information.service.gov.uk/company/08090090,11/07/2013,9 BARMITZVAHS LIMITED,,,,,,,,,,,,,,,,,,,01/06/2025,18/05/2024,51.58694135158491,-0.21993117665454867
9 LYNMOUTH ROAD FREEHOLD LIMITED,10027815,,,8 TENTERDEN GARDENS,,LONDON,,UNITED KINGDOM,NW4 1TE,"PRI/LTD BY GUAR/NSC (Private, limited by guarantee, no share capital)",Active,United Kingdom,,26/02/2016,29.0,2.0,30/11/2025,29/02/2024,TOTAL EXEMPTION FULL,26/03/2017,,0,0,0,0,68320 - Management of real estate on a fee or contract basis,,,,0,0,https://find-and-update.company-information.service.gov.uk/company/10027815,,,,,,,,,,,,,,,,,,,,,09/03/2025,23/02/2024,51.591416018952486,-0.2155552015983348
9 NEELD CRESCENT COMPANY LIMITED,08701830,,,9 NEELD CRESCENT,,LONDON,,,NW4 3RP,Private Limited Company,Active,United Kingdom,,23/09/2013,30.0,9.0,30/06/2025,30/09/2023,DORMANT,21/10/2016,23/09/2015,0,0,0,0,98000 - Residents property management,,,,0,0,https://find-and-update.company-information.service.gov.uk/company/08701830,,,,,,,,,,,,,,,,,,,,,11/06/2025,28/05/2024,51.58387020503214,-0.23151197967516302
9 ROSARY GARDENS SW7 4NN LIMITED,09511882,,,MORELAND ESTATE PROPERTY MANAGEMENT LTD,5 SENTINEL SQUARE,LONDON,,ENGLAND,NW4 2EL,Private Limited Company,Active,United Kingdom,,26/03/2015,31.0,12.0,30/09/2025,29/12/2023,TOTAL EXEMPTION FULL,23/04/2017,26/03/2016,1,1,0,0,68209 - Other letting and operating of own or leased real estate,,,,0,0,https://find-and-update.company-information.service.gov.uk/company/09511882,,,,,,,,,,,,,,,,,,,,,09/04/2025,26/03/2024,51.58694135158491,-0.21993117665454867
9 STEEDMAN STREET RTM COMPANY LIMITED,12487047,,,WILBERFORCE HOUSE,STATION ROAD,LONDON,,ENGLAND,NW4 4QE,"PRI/LTD BY GUAR/NSC (Private, limited by guarantee, no share capital)",Active,United Kingdom,,27/02/2020,29.0,2.0,30/11/2025,28/02/2024,DORMANT,27/03/2021,,0,0,0,0,98000 - Residents property management,,,,0,0,https://find-and-update.company-information.service.gov.uk/company/12487047,,,,,,,,,,,,,,,,,,,,,13/03/2025,27/02/2024,51.57976719202784,-0.23911864673576186
901WD LTD,11356420,,,18B VIVIAN AVENUE,,LONDON,,ENGLAND,NW4 4HA,Private Limited Company,Active - Proposal to Strike off,United Kingdom,,11/05/2018,31.0,3.0,31/12/2023,31/03/2022,MICRO ENTITY,08/06/2019,,0,0,0,0,"46170 - Agents involved in the sale of food, beverages and tobacco",46180 - Agents specialized in the sale of other particular products,"46341 - Wholesale of fruit and vegetable juices, mineral water and soft drinks","46390 - Non-specialised wholesale of food, beverages and tobacco",0,0,https://find-and-update.company-information.service.gov.uk/company/11356420,,,,,,,,,,,,,,,,,,,,,24/05/2024,10/05/2023,51.586164750752545,-0.2345985740465263
92 SUNNINGFIELDS ROAD LIMITED,05590399,,,FLAT 3 92 SUNNINGFIELDS ROAD,HENDON,LONDON,,,NW4 4RH,Private Limited Company,Active,United Kingdom,,12/10/2005,31.0,12.0,30/09/2025,31/12/2023,DORMANT,09/11/2016,12/10/2015,0,0,0,0,68209 - Other letting and operating of own or leased real estate,,,,0,0,https://find-and-update.company-information.service.gov.uk/company/05590399,,,,,,,,,,,,,,,,,,,,,28/05/2025,14/05/2024,51.594517485294624,-0.22617523991867314
95 CHURCH ROAD HENDON LTD,12965457,,,95 CHURCH ROAD,,LONDON,,UNITED KINGDOM,NW4 4FE,Private Limited Company,Active,United Kingdom,,21/10/2020,31.0,12.0,30/09/2025,31/12/2023,SMALL,18/11/2021,,0,0,0,0,68209 - Other letting and operating of own or leased real estate,,,,0,0,https://find-and-update.company-information.service.gov.uk/company/12965457,01/07/2021,BESPOKE LUXURY DESIGNS LTD,,,,,,,,,,,,,,,,,,,04/12/2025,20/11/2024,,
95 SUNNY GARDENS ROAD LIMITED,06037065,,,95 SUNNY GARDENS ROAD,HENDON,LONDON,,,NW4 1SH,Private Limited Company,Active,United Kingdom,,22/12/2006,31.0,12.0,30/09/2025,31/12/2023,MICRO ENTITY,15/12/2016,17/11/2015,0,0,0,0,68100 - Buying and selling of own real estate,,,,0,0,https://find-and-update.company-information.service.gov.uk/company/06037065,,,,,,,,,,,,,,,,,,,,,18/09/2025,04/09/2024,51.59504008509181,-0.2256495580907604
965 FINCHLEY ROAD MANAGEMENT COMPANY LIMITED,07673982,,,45 EGERTON GARDENS,,LONDON,,ENGLAND,NW4 4BB,Private Limited Company,Active,United Kingdom,,20/06/2011,30.0,6.0,31/03/2025,30/06/2023,DORMANT,11/07/2017,13/06/2016,0,0,0,0,98000 - Residents property management,,,,0,0,https://find-and-update.company-information.service.gov.uk/company/07673982,,,,,,,,,,,,,,,,,,,,,09/03/2025,23/02/2024,51.58848196779432,-0.22606387404116932
99 ALBERT STREET LIMITED,16087475,,,36 SHIREHALL PARK,,LONDON,,ENGLAND,NW4 2QX,Private Limited Company,Active,United Kingdom,,18/11/2024,30.0,11.0,18/08/2026,,NO ACCOUNTS FILED,16/12/2025,,0,0,0,0,68100 - Buying and selling of own real estate,,,,0,0,https://find-and-update.company-information.service.gov.uk/company/16087475,,,,,,,,,,,,,,,,,,,,,01/12/2025,,51.579094664245915,-0.21720691862625383
A & A DEVELOPMENT LIMITED,04419038,,,CHURCHILL HOUSE 137 BRENT STREET,HENDON,LONDON,,,NW4 4DJ,Private Limited Company,Active,United Kingdom,,17/04/2002,30.0,4.0,31/01/2026,30/04/2024,TOTAL EXEMPTION FULL,15/05/2017,17/04/2016,0,0,0,0,68209 - Other letting and operating of own or leased real estate,,,,0,0,https://find-and-update.company-information.service.gov.uk/company/04419038,,,,,,,,,,,,,,,,,,,,,14/12/2024,30/11/2023,51.58862360764252,-0.22175650594586224
A & C BUILDERS LIMITED,06861901,,,2 NICOLL PLACE,,LONDON,,ENGLAND,NW4 3PD,Private Limited Company,Active,United Kingdom,,27/03/2009,31.0,3.0,31/12/2024,31/03/2023,UNAUDITED ABRIDGED,24/04/2017,27/03/2016,0,0,0,0,41202 - Construction of domestic buildings,,,,0,0,https://find-and-update.company-information.service.gov.uk/company/06861901,,,,,,,,,,,,,,,,,,,,,10/04/2025,27/03/2024,51.57741647712477,-0.22930903436502298
A & H COURIERS LTD,08235934,,,129 STATION ROAD,,LONDON,LONDON,,NW4 4NJ,Private Limited Company,Active,United Kingdom,,02/10/2012,31.0,10.0,31/07/2025,31/10/2023,TOTAL EXEMPTION FULL,30/10/2016,02/10/2015,0,0,0,0,53201 - Licensed carriers,,,,0,0,https://find-and-update.company-information.service.gov.uk/company/08235934,,,,,,,,,,,,,,,,,,,,,15/10/2025,01/10/2024,51.584515733001986,-0.23317574360505883
A & J BROTHERS LIMITED,14355393,,,9 HALL LANE,HENDON,LONDON,,ENGLAND,NW4 4TJ,Private Limited Company,Active,United Kingdom,,14/09/2022,30.0,9.0,30/06/2025,30/09/2023,DORMANT,12/10/2023,,0,0,0,0,53202 - Unlicensed carrier,,,,0,0,https://find-and-update.company-information.service.gov.uk/company/14355393,,,,,,,,,,,,,,,,,,,,,21/12/2024,07/12/2023,51.59991292899028,-0.23572598527330438
A & M SIBLINGS LTD,12660113,,,7A VIVIAN AVENUE,,HENDON,LONDON,ENGLAND,NW4 3UT,Private Limited Company,Active,United Kingdom,,10/06/2020,30.0,6.0,31/03/2025,30/06/2023,MICRO ENTITY,08/07/2021,,0,0,0,0,"47110 - Retail sale in non-specialised stores with food, beverages or tobacco predominating",47620 - Retail sale of newspapers and stationery in specialised stores,,,0,0,https://find-and-update.company-information.service.gov.uk/company/12660113,,,,,,,,,,,,,,,,,,,,,14/05/2025,30/04/2024,51.58248964468147,-0.2282169407045744
A & S MARKETHING LTD,10378944,,,129 STATION ROAD,,HENDON,LONDON,ENGLAND,NW4 4NJ,Private Limited Company,Active,United Kingdom,,16/09/2016,30.0,9.0,30/06/2025,30/09/2023,TOTAL EXEMPTION FULL,14/10/2017,,0,0,0,0,47750 - Retail sale of cosmetic and toilet articles in specialised stores,,,,0,0,https://find-and-update.company-information.service.gov.uk/company/10378944,,,,,,,,,,,,,,,,,,,,,22/12/2024,08/12/2023,51.584515733001986,-0.23317574360505883
A & S REFURBISHMENTS LTD,07198473,,,BARAKA HOUSE,GREENBANK CRESCENT,LONDON,,ENGLAND,NW4 2LA,Private Limited Company,Active,United Kingdom,,22/03/2010,31.0,3.0,31/12/2024,31/03/2023,TOTAL EXEMPTION FULL,19/04/2017,22/03/2016,0,0,0,0,43390 - Other building completion and finishing,,,,0,0,https://find-and-update.company-information.service.gov.uk/company/07198473,,,,,,,,,,,,,,,,,,,,,08/04/2025,25/03/2024,51.588701449465304,-0.20854472628366671
A & S WHEELS LIMITED,04318323,,,22 SUNNY GARDENS ROAD,,LONDON,,ENGLAND,NW4 1RX,Private Limited Company,Liquidation,United Kingdom,,07/11/2001,30.0,11.0,31/08/2022,30/11/2020,TOTAL EXEMPTION FULL,28/09/2016,31/08/2015,2,0,0,2,45320 - Retail trade of motor vehicle parts and accessories,,,,0,0,https://find-and-update.company-information.service.gov.uk/company/04318323,,,,,,,,,,,,,,,,,,,,,13/09/2022,30/08/2021,51.5924721047285,-0.2241182491375769
A CAFE SOCIETY LIMITED,07150445,,,3 NICOLL PLACE,,LONDON,,ENGLAND,NW4 3PD,Private Limited Company,Active,United Kingdom,,09/02/2010,28.0,2.0,30/11/2025,28/02/2024,DORMANT,09/03/2017,09/02/2016,0,0,0,0,56102 - Unlicensed restaurants and cafes,56210 - Event catering activities,,,0,0,https://find-and-update.company-information.service.gov.uk/company/07150445,,,,,,,,,,,,,,,,,,,,,21/08/2025,07/08/2024,51.57741647712477,-0.22930903436502298
A FUTURE INVESTMENTS LIMITED,09885619,,,65A WATFORD WAY,,LONDON,,ENGLAND,NW4 3AQ,Private Limited Company,Active,United Kingdom,,24/11/2015,30.0,11.0,31/08/2025,30/11/2023,TOTAL EXEMPTION FULL,22/12/2016,,0,0,0,0,68100 - Buying and selling of own real estate,,,,0,0,https://find-and-update.company-information.service.gov.uk/company/09885619,,,,,,,,,,,,,,,,,,,,,09/10/2025,25/09/2024,51.58452799226046,-0.22981204609330097
A J MICHAEL LTD,12648422,,,41 SOUTHFIELDS,,LONDON,,ENGLAND,NW4 4LX,Private Limited Company,Active,United Kingdom,,05/06/2020,30.0,6.0,31/03/2025,30/06/2023,MICRO ENTITY,03/07/2021,,0,0,0,0,78109 - Other activities of employment placement agencies,78200 - Temporary employment agency activities,"87200 - Residential care activities for learning difficulties, mental health and substance abuse",87900 - Other residential care activities n.e.c.,0,0,https://find-and-update.company-information.service.gov.uk/company/12648422,,,,,,,,,,,,,,,,,,,,,23/08/2025,09/08/2024,51.593889377091294,-0.23162817278266884
A MIZERA LTD,10417602,,,FLAT 3 HARRY COURT,"13 WENLOCK GARDENS, HENDON",LONDON,,ENGLAND,NW4 4XJ,Private Limited Company,Active,United Kingdom,,10/10/2016,31.0,3.0,31/12/2025,31/03/2024,MICRO ENTITY,07/11/2017,,0,0,0,0,82990 - Other business support service activities n.e.c.,,,,0,0,https://find-and-update.company-information.service.gov.uk/company/10417602,,,,,,,,,,,,,,,,,,,,,23/10/2025,09/10/2024,51.58849626252927,-0.23356987627206932
A N D BUILDING LTD,10433713,,,50 ST. MARYS CRESCENT,,LONDON,,ENGLAND,NW4 4LH,Private Limited Company,Active,United Kingdom,,18/10/2016,29.0,3.0,29/12/2024,29/03/2023,MICRO ENTITY,15/11/2017,,0,0,0,0,43390 - Other building completion and finishing,,,,0,0,https://find-and-update.company-information.service.gov.uk/company/10433713,,,,,,,,,,,,,,,,,,,,,31/10/2025,17/10/2024,51.59297825871089,-0.22905044009453596
A SALA CONSTRUCTION LTD,13594363,,,FLAT 1 BRINSDALE PARK,BRINSDALE ROAD,LONDON,,ENGLAND,NW4 1TB,Private Limited Company,Active - Proposal to Strike off,United Kingdom,,31/08/2021,31.0,8.0,31/05/2025,31/08/2023,MICRO ENTITY,28/09/2022,,0,0,0,0,43390 - Other building completion and finishing,,,,0,0,https://find-and-update.company-information.service.gov.uk/company/13594363,,,,,,,,,,,,,,,,,,,,,29/01/2025,15/01/2024,51.59076611219516,-0.21598488926029502
A&A BUSINESS GROUP LTD,15819663,,,1 51F STATION ROAD,,LONDON,,UNITED KINGDOM,NW4 4PN,Private Limited Company,Active,United Kingdom,,04/07/2024,31.0,7.0,04/04/2026,,NO ACCOUNTS FILED,01/08/2025,,0,0,0,0,56101 - Licensed restaurants,,,,0,0,https://find-and-update.company-information.service.gov.uk/company/15819663,,,,,,,,,,,,,,,,,,,,,17/07/2025,,51.58069427155525,-0.2373796935488516
A&A EDUCATIONAL SERVICES LTD,12134060,,,69 KINGS CLOSE,,HENDON,LONDON,ENGLAND,NW4 2JU,Private Limited Company,Active,United Kingdom,,01/08/2019,31.0,8.0,31/05/2025,31/08/2023,TOTAL EXEMPTION FULL,29/08/2020,,0,0,0,0,70229 - Management consultancy activities other than financial management,,,,0,0,https://find-and-update.company-information.service.gov.uk/company/12134060,,,,,,,,,,,,,,,,,,,,,14/08/2025,31/07/2024,51.58866372124606,-0.2119674898858592
A&A ENTERPRISE AND IT CONSULTING LTD,15081545,,,18 CRESPIGNY ROAD,,LONDON,,ENGLAND,NW4 3DY,Private Limited Company,Active,United Kingdom,,18/08/2023,31.0,8.0,18/05/2025,,NO ACCOUNTS FILED,15/09/2024,,0,0,0,0,62020 - Information technology consultancy activities,,,,0,0,https://find-and-update.company-information.service.gov.uk/company/15081545,,,,,,,,,,,,,,,,,,,,,31/08/2025,17/08/2024,51.57978927479422,-0.2292312416218801
A&A LETTINGS AND MANAGEMENT SERVICES LTD,14817542,,,18 CRESPIGNY ROAD,,LONDON,,ENGLAND,NW4 3DY,Private Limited Company,Active,United Kingdom,,20/04/2023,30.0,4.0,20/01/2025,,NO ACCOUNTS FILED,18/05/2024,,1,1,0,0,68209 - Other letting and operating of own or leased real estate,,,,0,0,https://find-and-update.company-information.service.gov.uk/company/14817542,,,,,,,,,,,,,,,,,,,,,03/05/2025,19/04/2024,51.57978927479422,-0.2292312416218801
A&A LONDON GROUP LTD,12978645,,,FLAT 1 ADMIRAL COURT,8 BARTON CLOSE,LONDON,,ENGLAND,NW4 4QD,Private Limited Company,Active,United Kingdom,,27/10/2020,31.0,10.0,31/07/2025,31/10/2023,MICRO ENTITY,24/11/2021,,0,0,0,0,45112 - Sale of used cars and light motor vehicles,,,,0,0,https://find-and-update.company-information.service.gov.uk/company/12978645,28/01/2021,YORK GEM AND JEWELLERY LTD,,,,,,,,,,,,,,,,,,,17/12/2024,03/12/2023,51.586612617162494,-0.23567828032665558
A&G BUSINESS CONSULTING LTD,14773255,,,24 JOHNS AVENUE,,LONDON,,UNITED KINGDOM,NW4 4EN,Private Limited Company,Active,United Kingdom,,31/03/2023,31.0,3.0,31/12/2025,31/03/2024,DORMANT,28/04/2024,,0,0,0,0,82990 - Other business support service activities n.e.c.,,,,0,0,https://find-and-update.company-information.service.gov.uk/company/14773255,,,,,,,,,,,,,,,,,,,,,13/04/2025,30/03/2024,51.58907549043365,-0.22368770581899003
A&K HAIR AND BEAUTY LTD,13297671,,,77 SUNNY GARDENS ROAD,,LONDON,,ENGLAND,NW4 1SJ,Private Limited Company,Active,United Kingdom,,28/03/2021,31.0,3.0,31/12/2024,31/03/2023,MICRO ENTITY,25/04/2022,,0,0,0,0,96020 - Hairdressing and other beauty treatment,,,,0,0,https://find-and-update.company-information.service.gov.uk/company/13297671,,,,,,,,,,,,,,,,,,,,,15/03/2025,01/03/2024,51.593213802132915,-0.2249988654051587
A&M BRUNCH LTD,15251554,,,12 PILKINGTON COURT,4 ALWYN GARDENS,LONDON,,ENGLAND,NW4 4XW,Private Limited Company,Active,United Kingdom,,01/11/2023,30.0,11.0,01/08/2025,,NO ACCOUNTS FILED,29/11/2024,,0,0,0,0,56101 - Licensed restaurants,68209 - Other letting and operating of own or leased real estate,,,0,0,https://find-and-update.company-information.service.gov.uk/company/15251554,,,,,,,,,,,,,,,,,,,,,08/05/2025,24/04/2024,51.58964751599554,-0.2347811571798805
A&R MANAGEMENT CONSULTANCY LTD,12249652,,,40 ALGERNON ROAD,,HENDON,BARNET,,NW4 3TA,Private Limited Company,Active - Proposal to Strike off,United Kingdom,,08/10/2019,30.0,4.0,31/01/2026,30/04/2024,MICRO ENTITY,05/11/2020,,0,0,0,0,70229 - Management consultancy activities other than financial management,,,,0,0,https://find-and-update.company-information.service.gov.uk/company/12249652,,,,,,,,,,,,,,,,,,,,,21/10/2024,07/10/2023,51.57935681661204,-0.23694072652874865
A-HOUSE INVESTMENTS LIMITED,10325888,,,CHURCHILL HOUSE SUITE 64,137-139 BRENT STREET,LONDON,,ENGLAND,NW4 4DJ,Private Limited Company,Active,United Kingdom,,11/08/2016,28.0,12.0,28/09/2025,31/12/2023,TOTAL EXEMPTION FULL,08/09/2017,,0,0,0,0,82990 - Other business support service activities n.e.c.,,,,0,0,https://find-and-update.company-information.service.gov.uk/company/10325888,,,,,,,,,,,,,,,,,,,,,28/10/2025,14/10/2024,51.58862360764252,-0.22175650594586224
A-LIST PROPERTY DEVELOPMENTS LTD,10554451,,,8 SHERWOOD ROAD,,LONDON,,UNITED KINGDOM,NW4 1AD,Private Limited Company,Active,United Kingdom,,10/01/2017,31.0,12.0,30/09/2025,31/12/2023,DORMANT,07/02/2018,,0,0,0,0,68310 - Real estate agencies,,,,0,0,https://find-and-update.company-information.service.gov.uk/company/10554451,,,,,,,,,,,,,,,,,,,,,23/01/2025,09/01/2024,51.594164226704635,-0.2206594396322973
A-Z JOINERY SERVICES LIMITED,11340476,,,415-417 HENDON WAY,,LONDON,,ENGLAND,NW4 3LH,Private Limited Company,Active - Proposal to Strike off,United Kingdom,,02/05/2018,31.0,5.0,28/02/2023,31/05/2021,MICRO ENTITY,30/05/2019,,0,0,0,0,43320 - Joinery installation,,,,0,0,https://find-and-update.company-information.service.gov.uk/company/11340476,,,,,,,,,,,,,,,,,,,,,15/05/2022,01/05/2021,51.581945686288314,-0.22732878048728428
A.A. COMPANY SERVICES LIMITED,02336407,,,UNIT 5,25-27 THE BURROUGHS,LONDON,,,NW4 4AR,Private Limited Company,Active,United Kingdom,,18/01/1989,31.0,3.0,31/12/2024,31/03/2023,TOTAL EXEMPTION FULL,30/08/2016,02/08/2015,0,0,0,0,70100 - Activities of head offices,,,,0,0,https://find-and-update.company-information.service.gov.uk/company/02336407,,,,,,,,,,,,,,,,,,,,,16/08/2025,02/08/2024,51.586420206084924,-0.2306623448397183
A.F.HEATH & CO.(BUILDERS)LIMITED,00393539,,,1 BRAMPTON LANE,,LONDON,,,NW4 4AB,Private Limited Company,Active,United Kingdom,,01/03/1945,30.0,6.0,31/03/2025,30/06/2023,DORMANT,28/08/2016,31/07/2015,15,9,0,6,41100 - Development of building projects,68100 - Buying and selling of own real estate,68209 - Other letting and operating of own or leased real estate,,0,0,https://find-and-update.company-information.service.gov.uk/company/00393539,,,,,,,,,,,,,,,,,,,,,14/08/2025,31/07/2024,51.58755877027681,-0.22150937507952878
A.M.C. CARS 2000 LTD,15459062,,,FLAT 1,28 BRENT STREET,LONDON,,ENGLAND,NW4 2ET,Private Limited Company,Active,United Kingdom,,01/02/2024,29.0,2.0,01/11/2025,,NO ACCOUNTS FILED,01/03/2025,,0,0,0,0,45112 - Sale of used cars and light motor vehicles,,,,0,0,https://find-and-update.company-information.service.gov.uk/company/15459062,,,,,,,,,,,,,,,,,,,,,14/02/2025,,51.58341564550622,-0.21573873332153098
A.M.H CONSTRUCTION DEVELOPMENT. LTD,15566267,,,101 WATFORD WAY,,LONDON,,ENGLAND,NW4 4RS,Private Limited Company,Active,United Kingdom,,16/03/2024,31.0,3.0,16/12/2025,,NO ACCOUNTS FILED,13/04/2025,,0,0,0,0,41202 - Construction of domestic buildings,,,,0,0,https://find-and-update.company-information.service.gov.uk/company/15566267,,,,,,,,,,,,,,,,,,,,,29/03/2025,,51.58633497090138,-0.23216689628388656
A.M.I. INVESTMENTS LIMITED,00620611,,,"FLAT 8, DEWLANDS COURT",2 TURNBERRY CLOSE,LONDON,,ENGLAND,NW4 1JL,Private Limited Company,Active,United Kingdom,,09/02/1959,30.0,6.0,31/03/2025,30/06/2023,TOTAL EXEMPTION FULL,28/01/2017,31/12/2015,7,4,0,3,68209 - Other letting and operating of own or leased real estate,,,,0,0,https://find-and-update.company-information.service.gov.uk/company/00620611,,,,,,,,,,,,,,,,,,,,,14/01/2025,31/12/2023,51.598464344216566,-0.21249223778759377
A2B CONSULTING LIMITED,08489197,,,CHURCHILL HOUSE,137 - 139 BRENT STREET,LONDON,,ENGLAND,NW4 4DJ,Private Limited Company,Active,United Kingdom,,15/04/2013,30.0,4.0,31/01/2025,30/04/2023,TOTAL EXEMPTION FULL,13/05/2017,15/04/2016,0,0,0,0,64999 - Financial intermediation not elsewhere classified,,,,0,0,https://find-and-update.company-information.service.gov.uk/company/08489197,,,,,,,,,,,,,,,,,,,,,29/04/2025,15/04/2024,51.58862360764252,-0.22175650594586224
AA CAFE LIMITED,12389373,,,UNIT 5,25-27 THE BURROUGHS,LONDON,,ENGLAND,NW4 4AR,Private Limited Company,Active - Proposal to Strike off,United Kingdom,,07/01/2020,31.0,1.0,31/10/2024,31/01/2023,MICRO ENTITY,04/02/2021,,0,0,0,0,56102 - Unlicensed restaurants and cafes,,,,0,0,https://find-and-update.company-information.service.gov.uk/company/12389373,,,,,,,,,,,,,,,,,,,,,20/01/2023,06/01/2022,51.586420206084924,-0.2306623448397183
AA CONSTRUCTION SOLUTION LTD,10951719,,,126A SUNNY GARDENS ROAD,,LONDON,,ENGLAND,NW4 1SE,Private Limited Company,Active - Proposal to Strike off,United Kingdom,,07/09/2017,30.0,9.0,30/06/2023,30/09/2021,MICRO ENTITY,05/10/2018,,0,0,0,0,41201 - Construction of commercial buildings,41202 - Construction of domestic buildings,,,0,0,https://find-and-update.company-information.service.gov.uk/company/10951719,,,,,,,,,,,,,,,,,,,,,03/07/2024,19/06/2023,51.597767987950164,-0.22526890830429938
AA INTERIOR RENOVATIONS LTD,15050906,,,45 HENDALE AVENUE,,LONDON,,ENGLAND,NW4 4LP,Private Limited Company,Active,United Kingdom,,04/08/2023,31.0,8.0,31/05/2026,31/08/2024,TOTAL EXEMPTION FULL,01/09/2024,,0,0,0,0,43210 - Electrical installation,"43220 - Plumbing, heat and air-conditioning installation",43330 - Floor and wall covering,43341 - Painting,0,0,https://find-and-update.company-information.service.gov.uk/company/15050906,21/09/2023,BEAMING INTERIOR RENOVATIONS LTD,,,,,,,,,,,,,,,,,,,17/08/2025,03/08/2024,51.592837166422804,-0.23042744894328293
AAA FOOD EXPRESS LIMITED,14815451,,,403 HENDON WAY,,LONDON,,ENGLAND,NW4 3LH,Private Limited Company,Active,United Kingdom,,19/04/2023,30.0,4.0,19/01/2025,,NO ACCOUNTS FILED,17/05/2024,,0,0,0,0,"47240 - Retail sale of bread, cakes, flour confectionery and sugar confectionery in specialised stores",,,,0,0,https://find-and-update.company-information.service.gov.uk/company/14815451,,,,,,,,,,,,,,,,,,,,,02/05/2025,18/04/2024,51.581945686288314,-0.22732878048728428
AAAJ INVESTMENTS LIMITED,05329802,,,33 SELBORNE GARDENS,,LONDON,,,NW4 4SH,Private Limited Company,Active,United Kingdom,,11/01/2005,31.0,1.0,31/01/2025,31/01/2023,TOTAL EXEMPTION FULL,08/02/2017,11/01/2016,2,0,0,2,68209 - Other letting and operating of own or leased real estate,,,,0,0,https://find-and-update.company-information.service.gov.uk/company/05329802,,,,,,,,,,,,,,,,,,,,,25/01/2025,11/01/2024,51.589324130827755,-0.23659818497370924
AAB LONDON LTD,12848309,,,18D VIVIAN AVENUE,HENDON,LONDON,,ENGLAND,NW4 3XP,Private Limited Company,Active,United Kingdom,,31/08/2020,31.0,8.0,31/05/2025,31/08/2023,MICRO ENTITY,28/09/2021,,0,0,0,0,66190 - Activities auxiliary to financial intermediation n.e.c.,,,,0,0,https://find-and-update.company-information.service.gov.uk/company/12848309,,,,,,,,,,,,,,,,,,,,,02/09/2025,19/08/2024,51.582747970234,-0.22924613132514018
AAC BUSINESS CONSULTING LTD,14943052,,,119-121 BRENT STREET,,LONDON,,ENGLAND,NW4 2DX,Private Limited Company,Active,United Kingdom,,19/06/2023,30.0,6.0,19/03/2025,,NO ACCOUNTS FILED,17/07/2024,,0,0,0,0,70229 - Management consultancy activities other than financial management,,,,0,0,https://find-and-update.company-information.service.gov.uk/company/14943052,,,,,,,,,,,,,,,,,,,,,02/07/2025,18/06/2024,51.587383863342616,-0.22124193360195973
AADLONDON LIMITED,08776063,,,8 ALLINGTON ROAD,,LONDON,,ENGLAND,NW4 3DJ,Private Limited Company,Active,United Kingdom,,14/11/2013,28.0,2.0,28/02/2025,28/02/2023,TOTAL EXEMPTION FULL,12/12/2016,14/11/2015,0,0,0,0,90030 - Artistic creation,,,,0,0,https://find-and-update.company-information.service.gov.uk/company/08776063,,,,,,,,,,,,,,,,,,,,,28/11/2024,14/11/2023,51.57996782988044,-0.2279541981218839
AASIAR LIMITED,15889087,,,STIRLING HOUSE,9 BURROUGHS GARDENS,HENDON,LONDON,UNITED KINGDOM,NW4 4AU,Private Limited Company,Active,United Kingdom,,09/08/2024,31.0,8.0,09/05/2026,,NO ACCOUNTS FILED,06/09/2025,,0,0,0,0,22110 - Manufacture of rubber tyres and tubes; retreading and rebuilding of rubber tyres,96090 - Other service activities n.e.c.,,,0,0,https://find-and-update.company-information.service.gov.uk/company/15889087,,,,,,,,,,,,,,,,,,,,,22/08/2025,,51.58698508459281,-0.23055378877410826
ABA THERAPY SPECIALISTS LTD,10412769,,,129 STATION ROAD,,LONDON,,ENGLAND,NW4 4NJ,Private Limited Company,Active,United Kingdom,,06/10/2016,31.0,10.0,31/07/2025,31/10/2023,TOTAL EXEMPTION FULL,03/11/2017,,0,0,0,0,86900 - Other human health activities,,,,0,0,https://find-and-update.company-information.service.gov.uk/company/10412769,,,,,,,,,,,,,,,,,,,,,19/10/2024,05/10/2023,51.584515733001986,-0.23317574360505883
ABBAS MEAT LTD,09785690,,,1 RICHMOND GARDENS,,LONDON,,ENGLAND,NW4 4RT,Private Limited Company,Active,United Kingdom,,21/09/2015,30.0,9.0,30/06/2025,30/09/2023,TOTAL EXEMPTION FULL,19/10/2016,,0,0,0,0,46320 - Wholesale of meat and meat products,,,,0,0,https://find-and-update.company-information.service.gov.uk/company/09785690,,,,,,,,,,,,,,,,,,,,,04/10/2025,20/09/2024,51.5866438440131,-0.23356954686062956
ABBEY BOX OFFICE LIMITED,00472019,,,9A 9A BURROUGHS GARDENS,,LONDON,,ENGLAND,NW4 4AU,Private Limited Company,Active,United Kingdom,,20/08/1949,31.0,12.0,30/09/2025,31/12/2023,TOTAL EXEMPTION FULL,28/06/2017,31/05/2016,18,7,0,11,90020 - Support activities to performing arts,,,,0,0,https://find-and-update.company-information.service.gov.uk/company/00472019,,,,,,,,,,,,,,,,,,,,,14/06/2025,31/05/2024,51.58698508459281,-0.23055378877410826
ABBEY COMMERCIAL LTD,04827515,,,113 BRENT STREET,,LONDON,,UNITED KINGDOM,NW4 2DX,Private Limited Company,Active,United Kingdom,,09/07/2003,31.0,12.0,30/09/2025,31/12/2023,FULL,27/07/2017,29/06/2016,6,5,0,1,68201 - Renting and operating of Housing Association real estate,,,,0,0,https://find-and-update.company-information.service.gov.uk/company/04827515,,,,,,,,,,,,,,,,,,,,,05/07/2025,21/06/2024,51.587383863342616,-0.22124193360195973
ABBEY EXECUTIVE SERVICES LIMITED,14278483,,,9A BURROUGHS GARDENS,,LONDON,,ENGLAND,NW4 4AU,Private Limited Company,Active,United Kingdom,,05/08/2022,31.0,12.0,30/09/2025,31/12/2023,TOTAL EXEMPTION FULL,02/09/2023,,0,0,0,0,79909 - Other reservation service activities n.e.c.,,,,0,0,https://find-and-update.company-information.service.gov.uk/company/14278483,,,,,,,,,,,,,,,,,,,,,18/08/2025,04/08/2024,51.58698508459281,-0.23055378877410826
ABBEY INTERNATIONAL EVENTS LTD,03465424,,,9A BURROUGHS GARDENS,,LONDON,,ENGLAND,NW4 4AU,Private Limited Company,Active,United Kingdom,,13/11/1997,31.0,12.0,30/09/2025,31/12/2023,TOTAL EXEMPTION FULL,11/12/2016,13/11/2015,0,0,0,0,93199 - Other sports activities,,,,0,0,https://find-and-update.company-information.service.gov.uk/company/03465424,,,,,,,,,,,,,,,,,,,,,27/11/2025,13/11/2024,51.58698508459281,-0.23055378877410826
ABBEY LEISURE GROUP LIMITED,00887321,,,9A BURROUGHS GARDENS,,LONDON,,ENGLAND,NW4 4AU,Private Limited Company,Active,United Kingdom,,09/09/1966,30.0,12.0,30/09/2025,31/12/2023,TOTAL EXEMPTION FULL,28/10/2016,30/09/2015,2,2,0,0,90020 - Support activities to performing arts,,,,0,0,https://find-and-update.company-information.service.gov.uk/company/00887321,,,,,,,,,,,,,,,,,,,,,14/10/2025,30/09/2024,51.58698508459281,-0.23055378877410826
ABBEY LODGE RTM COMPANY LIMITED,05541319,,,WILBERFORCE HOUSE,STATION ROAD,LONDON,,,NW4 4QE,"PRI/LTD BY GUAR/NSC (Private, limited by guarantee, no share capital)",Active,United Kingdom,,19/08/2005,31.0,3.0,31/12/2024,31/03/2023,MICRO ENTITY,16/09/2016,19/08/2015,0,0,0,0,98000 - Residents property management,,,,0,0,https://find-and-update.company-information.service.gov.uk/company/05541319,,,,,,,,,,,,,,,,,,,,,02/09/2025,19/08/2024,51.57976719202784,-0.23911864673576186
ABBEY TRAVEL SERVICE LTD,15657725,,,9A BURROUGHS GARDENS,,LONDON,,ENGLAND,NW4 4AU,Private Limited Company,Active,United Kingdom,,18/04/2024,31.0,12.0,30/09/2025,,NO ACCOUNTS FILED,16/05/2025,,0,0,0,0,79110 - Travel agency activities,,,,0,0,https://find-and-update.company-information.service.gov.uk/company/15657725,,,,,,,,,,,,,,,,,,,,,01/05/2025,,51.58698508459281,-0.23055378877410826
ABBEYWOODS GLOBAL LIMITED,11438520,,,CHURCHILL HOUSE 137-139,BRENT STREET,HENDON,LONDON,UNITED KINGDOM,NW4 4DJ,Private Limited Company,Active,United Kingdom,,28/06/2018,30.0,6.0,31/03/2025,30/06/2023,MICRO ENTITY,26/07/2019,,0,0,0,0,66110 - Administration of financial markets,,,,0,0,https://find-and-update.company-information.service.gov.uk/company/11438520,,,,,,,,,,,,,,,,,,,,,11/07/2025,27/06/2024,51.58862360764252,-0.22175650594586224
ABC ESTATES (LONDON) LTD,09128835,,,51 BRENT STREET,,LONDON,,ENGLAND,NW4 2EA,Private Limited Company,Active - Proposal to Strike off,United Kingdom,,14/07/2014,31.0,7.0,30/04/2025,31/07/2023,DORMANT,11/08/2016,14/07/2015,0,0,0,0,68310 - Real estate agencies,,,,0,0,https://find-and-update.company-information.service.gov.uk/company/09128835,23/07/2014,ABC ESTATES PROPERTY LTD,,,,,,,,,,,,,,,,,,,07/08/2025,24/07/2024,51.58601326812441,-0.22040049707159365
ABC HENDON LIMITED,11810266,,,51 BRENT STREET,,LONDON,,ENGLAND,NW4 2EA,Private Limited Company,Active,United Kingdom,,06/02/2019,28.0,2.0,30/11/2025,29/02/2024,TOTAL EXEMPTION FULL,05/03/2020,,0,0,0,0,68310 - Real estate agencies,,,,0,0,https://find-and-update.company-information.service.gov.uk/company/11810266,,,,,,,,,,,,,,,,,,,,,21/02/2025,07/02/2024,51.58601326812441,-0.22040049707159365
ABC VALENTINA LTD,12854511,,,FLAT 14 CLIVE LODGE,SHIREHALL LANE,LONDON,,ENGLAND,NW4 3RG,Private Limited Company,Active - Proposal to Strike off,United Kingdom,,03/09/2020,30.0,9.0,30/06/2024,30/09/2022,MICRO ENTITY,01/10/2021,,0,0,0,0,"47110 - Retail sale in non-specialised stores with food, beverages or tobacco predominating",,,,0,0,https://find-and-update.company-information.service.gov.uk/company/12854511,,,,,,,,,,,,,,,,,,,,,28/05/2025,14/05/2024,51.57789917105406,-0.21783099485657242
ABEL HOUSE AND CROWN HOUSE MANAGEMENT COMPANY LIMITED,05399900,,,5 SENTINEL SQUARE,HENDON,LONDON,,,NW4 2EL,"PRI/LTD BY GUAR/NSC (Private, limited by guarantee, no share capital)",Active,United Kingdom,,21/03/2005,31.0,12.0,30/09/2024,31/12/2022,TOTAL EXEMPTION FULL,18/04/2017,21/03/2016,0,0,0,0,99999 - Dormant Company,,,,0,0,https://find-and-update.company-information.service.gov.uk/company/05399900,21/07/2005,ABEL HOUSE MANAGEMENT COMPANY LIMITED,,,,,,,,,,,,,,,,,,,04/04/2025,21/03/2024,51.58694135158491,-0.21993117665454867
ABEL OF HERTFORD LETTINGS LIMITED,07548048,,,46 VIVIAN AVENUE,HENDON CENTRAL,LONDON,,,NW4 3XP,Private Limited Company,Liquidation,United Kingdom,,02/03/2011,30.0,3.0,15/03/2017,31/03/2015,TOTAL EXEMPTION SMALL,26/03/2017,26/02/2016,0,0,0,0,68320 - Management of real estate on a fee or contract basis,,,,0,0,https://find-and-update.company-information.service.gov.uk/company/07548048,29/09/2015,STEVEN OATES LETTINGS LIMITED,,,,,,,,,,,,,,,,,,,12/03/2018,26/02/2017,51.582747970234,-0.22924613132514018
ABERCORN ROAD MANAGEMENT LIMITED,02487684,,,113 BRENT STREET,,LONDON,,UNITED KINGDOM,NW4 2DX,Private Limited Company,Active,United Kingdom,,02/04/1990,31.0,12.0,30/09/2025,31/12/2023,DORMANT,30/04/2017,02/04/2016,0,0,0,0,98000 - Residents property management,,,,0,0,https://find-and-update.company-information.service.gov.uk/company/02487684,,,,,,,,,,,,,,,,,,,,,16/04/2025,02/04/2024,51.587383863342616,-0.22124193360195973
ABHI GROWTH LTD,15336707,,,50 FOSCOTE ROAD,,LONDON,,ENGLAND,NW4 3SD,Private Limited Company,Active,United Kingdom,,08/12/2023,31.0,12.0,08/09/2025,,NO ACCOUNTS FILED,05/01/2025,,0,0,0,0,73110 - Advertising agencies,,,,0,0,https://find-and-update.company-information.service.gov.uk/company/15336707,,,,,,,,,,,,,,,,,,,,,21/12/2024,,51.580393883939415,-0.23056445328859754
ABL MANAGEMENT SERVICES LIMITED,07518066,,,BASEMENT - THE CURVE,2-4 VICTORIA ROAD,LONDON,,ENGLAND,NW4 2BE,Private Limited Company,Active - Proposal to Strike off,United Kingdom,,04/02/2011,7.0,10.0,07/07/2024,30/09/2022,TOTAL EXEMPTION FULL,08/02/2017,11/01/2016,0,0,0,0,68320 - Management of real estate on a fee or contract basis,,,,0,0,https://find-and-update.company-information.service.gov.uk/company/07518066,,,,,,,,,,,,,,,,,,,,,11/01/2023,28/12/2021,,
ABLEGOLD LIMITED,03559132,,,56A AUDLEY ROAD,LONDON,,,,NW4 3HB,Private Limited Company,Active,United Kingdom,,07/05/1998,31.0,5.0,28/02/2025,31/05/2023,DORMANT,04/06/2017,07/05/2016,0,0,0,0,99999 - Dormant Company,,,,0,0,https://find-and-update.company-information.service.gov.uk/company/03559132,,,,,,,,,,,,,,,,,,,,,21/05/2025,07/05/2024,51.579315349085974,-0.23298775225920093
ABRAMCHUK & CO. LIMITED,13256923,,,C/O POLLOCK ACCOUNTING,3 - 4 SENTINEL SQUARE,LONDON,,ENGLAND,NW4 2EL,Private Limited Company,Active,United Kingdom,,10/03/2021,31.0,3.0,31/12/2025,31/03/2024,MICRO ENTITY,07/04/2022,,0,0,0,0,62090 - Other information technology service activities,,,,0,0,https://find-and-update.company-information.service.gov.uk/company/13256923,,,,,,,,,,,,,,,,,,,,,23/03/2025,09/03/2024,51.58694135158491,-0.21993117665454867
ABRAMOVICH PROPERTIES LTD,11852899,,,"ENTERPRISE HOUSE, 2 THE CREST",FIRST FLOOR,LONDON,,ENGLAND,NW4 2HN,Private Limited Company,Active,United Kingdom,,28/02/2019,28.0,2.0,30/11/2025,28/02/2024,TOTAL EXEMPTION FULL,27/03/2020,,3,3,0,0,68209 - Other letting and operating of own or leased real estate,,,,0,0,https://find-and-update.company-information.service.gov.uk/company/11852899,,,,,,,,,,,,,,,,,,,,,13/03/2025,27/02/2024,51.58538289624877,-0.21915487170432882
ABSTRACT DISTRIBUTION LIMITED,07037935,,,46 VIVIAN AVENUE,HENDON CENTRAL,LONDON,,,NW4 3XP,Private Limited Company,Liquidation,United Kingdom,,12/10/2009,31.0,10.0,31/07/2025,31/10/2023,MICRO ENTITY,09/11/2016,12/10/2015,0,0,0,0,90020 - Support activities to performing arts,,,,0,0,https://find-and-update.company-information.service.gov.uk/company/07037935,,,,,,,,,,,,,,,,,,,,,26/10/2024,12/10/2023,51.582747970234,-0.22924613132514018
ABV FINCHLEY LTD,15013621,,,140 AUDLEY ROAD,,LONDON,,ENGLAND,NW4 3EG,Private Limited Company,Active - Proposal to Strike off,United Kingdom,,19/07/2023,31.0,7.0,19/04/2025,,NO ACCOUNTS FILED,16/08/2024,,0,0,0,0,81210 - General cleaning of buildings,81221 - Window cleaning services,81222 - Specialised cleaning services,81299 - Other cleaning services,0,0,https://find-and-update.company-information.service.gov.uk/company/15013621,,,,,,,,,,,,,,,,,,,,,01/08/2024,,51.58282920641416,-0.23344323553022298
ABYDOS ESTATES LIMITED,01064191,,,1 SHIREHALL LANE,LONDON,,,,NW4 2PE,Private Limited Company,Active,United Kingdom,,04/08/1972,28.0,3.0,28/12/2024,31/03/2023,TOTAL EXEMPTION FULL,29/08/2016,01/08/2015,14,0,0,14,68100 - Buying and selling of own real estate,,,,0,0,https://find-and-update.company-information.service.gov.uk/company/01064191,,,,,,,,,,,,,,,,,,,,,15/08/2025,01/08/2024,51.58128705074792,-0.21650048017151444
AC PROBUILD LIMITED,12975752,,,84 EDGEWORTH CLOSE,EDGEWORTH CLOSE,LONDON,,ENGLAND,NW4 4HN,Private Limited Company,Active,United Kingdom,,26/10/2020,31.0,10.0,31/07/2025,31/10/2023,TOTAL EXEMPTION FULL,23/11/2021,,0,0,0,0,41202 - Construction of domestic buildings,,,,0,0,https://find-and-update.company-information.service.gov.uk/company/12975752,,,,,,,,,,,,,,,,,,,,,08/11/2025,25/10/2024,51.586005313131125,-0.23775155987467286
ACADEMIC LANGUAGE EXPERTS LTD,13663871,,,11 PROTHERO GARDENS,,LONDON,,ENGLAND,NW4 3SJ,Private Limited Company,Active,United Kingdom,,06/10/2021,31.0,10.0,31/07/2025,31/10/2023,DORMANT,03/11/2022,,0,0,0,0,74300 - Translation and interpretation activities,,,,0,0,https://find-and-update.company-information.service.gov.uk/company/13663871,,,,,,,,,,,,,,,,,,,,,19/10/2025,05/10/2024,51.585964794230236,-0.22789410298880347
ACADEMY FOR ADVANCED STUDIES AND TRAINING UK INTERNATIONAL LIMITED,14176180,,,7 NEELD CRESCENT,LONDON,LONDON,ENGLAND,UNITED KINGDOM,NW4 3RP,Private Limited Company,Active,United Kingdom,,16/06/2022,30.0,6.0,31/03/2025,30/06/2023,DORMANT,14/07/2023,,0,0,0,0,99999 - Dormant Company,,,,0,0,https://find-and-update.company-information.service.gov.uk/company/14176180,,,,,,,,,,,,,,,,,,,,,21/07/2025,07/07/2024,51.58387020503214,-0.23151197967516302
ACAURA LTD,15279559,,,22 DOWNAGE,,LONDON,,ENGLAND,NW4 1AH,Private Limited Company,Active,United Kingdom,,13/11/2023,30.0,11.0,13/08/2025,,NO ACCOUNTS FILED,11/12/2024,,0,0,0,0,47710 - Retail sale of clothing in specialised stores,,,,0,0,https://find-and-update.company-information.service.gov.uk/company/15279559,,,,,,,,,,,,,,,,,,,,,26/11/2024,,51.594521670379486,-0.22229135932512478
ACAW PROPERTIES LTD,15063819,,,BARAKA HOUSE,GREEN BANK CRESCENT,LONDON,,ENGLAND,NW4 2LA,Private Limited Company,Active,United Kingdom,,10/08/2023,31.0,8.0,10/05/2025,,NO ACCOUNTS FILED,07/09/2024,,2,2,0,0,68100 - Buying and selling of own real estate,,,,0,0,https://find-and-update.company-information.service.gov.uk/company/15063819,,,,,,,,,,,,,,,,,,,,,23/08/2025,09/08/2024,51.588701449465304,-0.20854472628366671
ACCOMMODATING CARE NEWENT LIMITED,06531653,,,43 GREEN WALK,,LONDON,,ENGLAND,NW4 2AL,Private Limited Company,Active,United Kingdom,,12/03/2008,28.0,3.0,28/12/2024,31/03/2023,TOTAL EXEMPTION FULL,09/04/2017,12/03/2016,5,1,0,4,68209 - Other letting and operating of own or leased real estate,,,,0,0,https://find-and-update.company-information.service.gov.uk/company/06531653,,,,,,,,,,,,,,,,,,,,,25/08/2025,11/08/2024,51.5863727502824,-0.21328441116687977
ACCOUNTAX FUSION LIMITED,07656666,,,111 STATION ROAD,,LONDON,,ENGLAND,NW4 4NT,Private Limited Company,Active,United Kingdom,,03/06/2011,30.0,6.0,31/03/2025,30/06/2023,UNAUDITED ABRIDGED,01/07/2017,03/06/2016,0,0,0,0,69201 - Accounting and auditing activities,,,,0,0,https://find-and-update.company-information.service.gov.uk/company/07656666,16/05/2016,TAX & ACCOUNTANCY PROFESSIONALS LIMITED,,,,,,,,,,,,,,,,,,,17/06/2025,03/06/2024,51.58284375066164,-0.23440974215563873
